{
  "id": "adelaide",
  "type": "school",
  "name": "University of Adelaide",
  "nameCn": "阿德莱德大学",
  "city": "Adelaide",
  "center": [
    -34.9192,
    138.6041
  ],
  "zoom": 12,
  "blurb": "阿德莱德大学以北阶地（North Terrace）历史校区为核心，坐落于阿德莱德市文化大道之上，紧邻南澳州立美术馆、博物馆与图书馆，并向西延伸至生物医学城医学校区，城外另设怀特农业校区与罗斯沃西兽医校区。",
  "features": [
    {
      "kind": "zone",
      "label": "校区 / 区域",
      "color": "#16a34a",
      "defaultOn": true,
      "items": [
        {
          "name": "North Terrace Campus",
          "nameCn": "北阶地校区（主校区）",
          "lat": -34.9205,
          "lng": 138.6054,
          "radius": 450,
          "note": "市中心历史主校区，本科教学与研究核心，毗邻文化大道。"
        },
        {
          "name": "Adelaide BioMed City (AHMS) Precinct",
          "nameCn": "生物医学城医学校区",
          "lat": -34.921,
          "lng": 138.5905,
          "radius": 350,
          "note": "西端医学与健康科学区，与皇家阿德莱德医院、SAHMRI 相邻。"
        },
        {
          "name": "Waite Campus",
          "nameCn": "怀特校区",
          "lat": -34.9688,
          "lng": 138.6339,
          "radius": 900,
          "note": "厄尔布雷，市区东南约 7 公里，全澳最大农业科研集群。"
        },
        {
          "name": "Thebarton (Research Park)",
          "nameCn": "西巴顿研究园校区",
          "lat": -34.911,
          "lng": 138.572,
          "radius": 400,
          "note": "托伦斯河畔工程与物理科研基地，距市中心约 4 公里。"
        },
        {
          "name": "Roseworthy Campus",
          "nameCn": "罗斯沃西校区",
          "lat": -34.531,
          "lng": 138.69,
          "radius": 1500,
          "note": "市区以北约 50 公里，南澳唯一兽医学院与兽医教学医院。"
        }
      ]
    },
    {
      "kind": "pointLayer",
      "key": "department",
      "label": "院系 / 教学楼",
      "color": "#2563eb",
      "icon": "school",
      "items": [
        {
          "name": "Ingkarni Wardli (Engineering, Computer & Mathematical Sciences)",
          "nameCn": "英卡尼·瓦尔迪大楼（工程与数学学院）",
          "lat": -34.9188,
          "lng": 138.6053,
          "rank": 1,
          "tier": "必去",
          "note": "工程、计算机与数学学院核心教学楼，设施先进，是全校最新的综合教学科研楼之一。"
        },
        {
          "name": "Bonython Hall",
          "nameCn": "博尼森大厅",
          "lat": -34.9196,
          "lng": 138.6031,
          "rank": 2,
          "tier": "必去",
          "note": "1936年建成的宏伟毕业典礼大厅，是大学标志性建筑，面朝North Terrace大道。"
        },
        {
          "name": "Adelaide Health & Medical Sciences Building (AHMS)",
          "nameCn": "阿德莱德健康与医学科学大楼（AHMS）",
          "lat": -34.9217,
          "lng": 138.5914,
          "rank": 3,
          "tier": "必去",
          "note": "大学历史上最大单体建筑，涵盖医学、护理、牙科学院，是西区核心医学教学楼。"
        },
        {
          "name": "Elder Hall",
          "nameCn": "埃尔德音乐厅",
          "lat": -34.92,
          "lng": 138.604,
          "rank": 4,
          "tier": "强烈推荐",
          "note": "建于1900年，澳大利亚历史最悠久的音乐学院所在地，常举办公开音乐会与讲座。"
        },
        {
          "name": "Hub Central",
          "nameCn": "中枢学生中心（Hub Central）",
          "lat": -34.9197,
          "lng": 138.6038,
          "rank": 5,
          "tier": "强烈推荐",
          "note": "校园核心学生服务楼，含自习室、项目间、餐饮、打印等，是日常学习生活的枢纽。"
        },
        {
          "name": "Napier Building (Arts, Business, Law & Economics Faculty)",
          "nameCn": "纳皮尔大楼（文商法经学院）",
          "lat": -34.919,
          "lng": 138.6044,
          "rank": 6,
          "tier": "强烈推荐",
          "note": "现代主义风格大楼，文学、哲学、法律、经济等院系的主要办公与教学场所。"
        },
        {
          "name": "Braggs Building (Physical Sciences)",
          "nameCn": "布拉格大楼（物理科学研究楼）",
          "lat": -34.9186,
          "lng": 138.606,
          "rank": 7,
          "tier": "推荐",
          "note": "以诺贝尔物理学奖得主布拉格父子命名，内含420座讲堂，是光子学与物理科学研究中心。"
        },
        {
          "name": "Mitchell Building",
          "nameCn": "米切尔大楼",
          "lat": -34.9194,
          "lng": 138.602,
          "rank": 8,
          "tier": "推荐",
          "note": "细腻砂岩风貌的历史地标楼，以前副校长兼哲学家William Mitchell命名，是北高架大道标志性景观。"
        },
        {
          "name": "Hughes Building (Psychology & Philosophy)",
          "nameCn": "休斯大楼（心理与哲学）",
          "lat": -34.9191,
          "lng": 138.6048,
          "rank": 9,
          "tier": "推荐",
          "note": "八层楼高含三层地下室，设有心理学、哲学及欧洲研究等院系，是校园内最高建筑之一。"
        },
        {
          "name": "Schulz Building (Health Sciences — West)",
          "nameCn": "舒尔茨大楼（健康科学西区）",
          "lat": -34.921,
          "lng": 138.591,
          "rank": 10,
          "tier": "推荐",
          "note": "位于校园西侧靠近Kintore Avenue，涵盖健康相关学科，毗邻AHMS形成健康学科集群。"
        },
        {
          "name": "Union House",
          "nameCn": "学生会大楼（Union House）",
          "lat": -34.92,
          "lng": 138.6045,
          "rank": 11,
          "tier": "推荐",
          "note": "2024年10月翻修完成，内有学生活动室、健身中心、俱乐部休息厅，是课余社交核心。"
        },
        {
          "name": "Lot Fourteen (Australian Institute for Machine Learning / Space Agency)",
          "nameCn": "第14号地块（机器学习与航天创新区）",
          "lat": -34.9209,
          "lng": 138.6083,
          "rank": 12,
          "tier": "推荐",
          "note": "阿大与政府联合打造的创新科技园，澳大利亚机器学习研究院（AIML）及航天局均设于此。"
        }
      ],
      "defaultOn": true
    },
    {
      "kind": "pointLayer",
      "key": "library",
      "label": "图书馆",
      "color": "#0891b2",
      "icon": "local_library",
      "items": [
        {
          "name": "Barr Smith Library",
          "nameCn": "巴史密斯图书馆",
          "lat": -34.9179,
          "lng": 138.6028,
          "rank": 1,
          "tier": "必去",
          "note": "大学主图书馆，藏书逾百万册，Level 3全年24/7开放，是学生自习首选之地。"
        },
        {
          "name": "State Library of South Australia",
          "nameCn": "南澳州立图书馆",
          "lat": -34.9209,
          "lng": 138.6022,
          "rank": 2,
          "tier": "强烈推荐",
          "note": "位于North Terrace文化大道，藏有南澳历史档案与地图，免费开放且馆内环境绝佳。"
        },
        {
          "name": "AHMS Hub Library",
          "nameCn": "AHMS医学健康专业图书馆",
          "lat": -34.9217,
          "lng": 138.5914,
          "rank": 3,
          "tier": "推荐",
          "note": "专为医学、牙科、护理学生服务，设于AHMS大楼内，紧邻皇家阿德莱德医院。"
        },
        {
          "name": "Waite Campus Library (Woolhouse Library)",
          "nameCn": "怀特校区图书馆（伍尔豪斯馆）",
          "lat": -34.97,
          "lng": 138.6347,
          "rank": 4,
          "tier": "推荐",
          "note": "以植物学家Harold Woolhouse命名，专注农业、园艺、葡萄酒科学等学科，位于Urrbrae校区。"
        },
        {
          "name": "City of Adelaide Public Library (Rundle Place)",
          "nameCn": "阿德莱德市公共图书馆（伦德尔广场馆）",
          "lat": -34.9231,
          "lng": 138.603,
          "rank": 5,
          "tier": "推荐",
          "note": "毗邻Rundle Mall，市立公共图书馆，免费Wi-Fi与阅览座位充足，适合课外补充阅读。"
        }
      ]
    },
    {
      "kind": "pointLayer",
      "key": "museum",
      "label": "博物馆 / 展馆",
      "color": "#9333ea",
      "icon": "museum",
      "items": [
        {
          "name": "South Australian Museum",
          "nameCn": "南澳博物馆",
          "lat": -34.9208,
          "lng": 138.603,
          "rank": 1,
          "tier": "必去",
          "note": "澳大利亚参观量最大的博物馆之一，以澳洲原住民文化及自然标本收藏著称，免费入场。"
        },
        {
          "name": "Art Gallery of South Australia (AGSA)",
          "nameCn": "南澳美术馆",
          "lat": -34.9206,
          "lng": 138.6039,
          "rank": 2,
          "tier": "必去",
          "note": "澳大利亚第二大州立美术馆，常设展与特展轮换，位于北庭大道文化核心地带，免费入场。"
        },
        {
          "name": "Migration Museum",
          "nameCn": "移民博物馆",
          "lat": -34.9213,
          "lng": 138.6016,
          "rank": 3,
          "tier": "强烈推荐",
          "note": "澳大利亚首座移民主题博物馆，展示南澳各族移民历史，入场免费，紧邻州立图书馆。"
        },
        {
          "name": "MOD. (Museum of Discovery)",
          "nameCn": "MOD 探索博物馆",
          "lat": -34.9215,
          "lng": 138.5913,
          "rank": 4,
          "tier": "强烈推荐",
          "note": "南澳大学科技未来主题博物馆，设有全澳首台Science on a Sphere，入场免费，适合15岁以上访客。"
        },
        {
          "name": "Adelaide Planetarium (UniSA Mawson Lakes)",
          "nameCn": "阿德莱德天文馆",
          "lat": -34.8086,
          "lng": 138.5978,
          "rank": 5,
          "tier": "推荐",
          "note": "阿德莱德唯一全年对公众开放的天文馆，位于UniSA Mawson Lakes校区，需购票预约。"
        }
      ]
    },
    {
      "kind": "pointLayer",
      "key": "landmark",
      "label": "地标 / 学生中心",
      "color": "#64748b",
      "icon": "place",
      "items": [
        {
          "name": "Rundle Mall",
          "nameCn": "伦德尔购物广场",
          "lat": -34.9225,
          "lng": 138.6017,
          "rank": 1,
          "tier": "必去",
          "note": "南澳最大购物步行街，逾1000家零售店，Woolworths、Coles、手机运营商、药店一应俱全。"
        },
        {
          "name": "Elder Park / Tarntanya Wama",
          "nameCn": "埃尔德公园（托伦斯河滨公园）",
          "lat": -34.9187,
          "lng": 138.5975,
          "rank": 2,
          "tier": "必去",
          "note": "校园北侧托伦斯河岸绿地，毗邻阿德莱德艺术节中心，是跑步、野餐与阿德莱德节庆活动的热门场所。"
        },
        {
          "name": "Adelaide Oval",
          "nameCn": "阿德莱德椭圆体育场",
          "lat": -34.9155,
          "lng": 138.5962,
          "rank": 3,
          "tier": "必去",
          "note": "澳大利亚最美板球与澳式橄榄球球场，提供屋顶步行体验，是阿德莱德的城市地标。"
        },
        {
          "name": "Adelaide Festival Centre",
          "nameCn": "阿德莱德艺术节中心",
          "lat": -34.9183,
          "lng": 138.592,
          "rank": 4,
          "tier": "强烈推荐",
          "note": "南半球最早建成的综合表演艺术中心之一，阿德莱德艺术节及弗林奇艺术节的核心演出场地。"
        },
        {
          "name": "Victoria Square / Tarntanyangga",
          "nameCn": "维多利亚广场（塔塔尼汉加）",
          "lat": -34.925,
          "lng": 138.6025,
          "rank": 5,
          "tier": "推荐",
          "note": "阿德莱德城市几何中心，设有喷泉与Kaurna原住民雕塑，是电车线路的重要节点广场。"
        },
        {
          "name": "North Terrace Cultural Precinct",
          "nameCn": "北庭大道文化区",
          "lat": -34.92,
          "lng": 138.6025,
          "rank": 6,
          "tier": "必去",
          "note": "集大学、博物馆、美术馆、图书馆于一条大道，是阿德莱德最具文化底蕴的城市走廊。"
        },
        {
          "name": "Adelaide Central Market",
          "nameCn": "阿德莱德中央市场",
          "lat": -34.9296,
          "lng": 138.5979,
          "rank": 7,
          "tier": "必去",
          "note": "南半球最大室内生鲜市场，逾70家摊位出售亚洲食材、新鲜蔬果与熟食，留学生必逛。"
        },
        {
          "name": "Lot Fourteen Innovation Precinct",
          "nameCn": "第14号地块创新区",
          "lat": -34.9209,
          "lng": 138.6083,
          "rank": 8,
          "tier": "推荐",
          "note": "前皇家阿德莱德医院旧址改建的科技创新园，含澳大利亚航天局与机器学习研究院，可免费参观。"
        }
      ]
    },
    {
      "kind": "pointLayer",
      "key": "supermarket",
      "label": "超市 / 亚超",
      "color": "#ea580c",
      "icon": "shopping_cart",
      "items": [
        {
          "name": "Woolworths Rundle Mall",
          "nameCn": "Woolworths伦德尔购物中心店",
          "lat": -34.9228,
          "lng": 138.602,
          "rank": 1,
          "tier": "必去",
          "note": "澳洲两大连锁超市之一，位于Rundle Mall核心地带，距校步行约10分钟，日常补给最方便。"
        },
        {
          "name": "Coles Rundle Place",
          "nameCn": "Coles伦德尔广场店",
          "lat": -34.9226,
          "lng": 138.6023,
          "rank": 2,
          "tier": "必去",
          "note": "Woolworths正对面的另一大连锁超市，自有品牌商品性价比高，是日常采购的竞争选择。"
        },
        {
          "name": "Adelaide Central Market",
          "nameCn": "阿德莱德中央市场",
          "lat": -34.9296,
          "lng": 138.5979,
          "rank": 3,
          "tier": "必去",
          "note": "逾70个摊位，新鲜蔬果、肉类、海鲜、亚洲食材一应俱全，价格实惠，是留学生采购的首选。"
        },
        {
          "name": "Homes Supermarket (Chinatown)",
          "nameCn": "Homes亚洲超市（唐人街）",
          "lat": -34.9294,
          "lng": 138.5966,
          "rank": 4,
          "tier": "必去",
          "note": "阿德莱德市中心最大亚洲超市，110 Gouger St，内有现场点心档口，中日韩食材最齐全。"
        },
        {
          "name": "Time Supermarket",
          "nameCn": "时代亚洲超市",
          "lat": -34.9292,
          "lng": 138.5974,
          "rank": 5,
          "tier": "强烈推荐",
          "note": "118 Grote St，以大量中式酱料、零食、活海鲜著称，每天营业至晚10时，留学生口碑极佳。"
        },
        {
          "name": "Dai Phat Asian Grocery (Market Plaza)",
          "nameCn": "大发亚洲超市（市场广场）",
          "lat": -34.929,
          "lng": 138.597,
          "rank": 6,
          "tier": "强烈推荐",
          "note": "原Kim Wang超市旧址，2026年新开张，越南港式食材丰富，紧邻Central Market，地理位置绝佳。"
        },
        {
          "name": "Asian Green Grocer (Adelaide Central Market)",
          "nameCn": "亚洲绿色蔬果铺（中央市场内）",
          "lat": -34.9296,
          "lng": 138.5979,
          "rank": 7,
          "tier": "推荐",
          "note": "中央市场内专营亚洲香草、蔬菜、酱料的摊位，是购买新鲜中式食材的便捷之选。"
        }
      ]
    },
    {
      "kind": "pointLayer",
      "key": "dining",
      "label": "必吃 / 餐饮",
      "color": "#dc2626",
      "icon": "restaurant",
      "items": [
        {
          "name": "Ying Chow Chinese Restaurant",
          "nameCn": "英超中国餐厅",
          "lat": -34.9295,
          "lng": 138.5972,
          "rank": 1,
          "tier": "绝对必吃",
          "note": "114 Gouger St，营业至凌晨1时，E-shan鸡、BBC炒饭、蒜蓉豆腐是招牌，留学生深夜宵夜圣地。"
        },
        {
          "name": "Concubine",
          "nameCn": "妾室当代中餐厅",
          "lat": -34.9299,
          "lng": 138.5975,
          "rank": 2,
          "tier": "绝对必吃",
          "note": "132 Gouger St，南澳2024年最佳中餐厅得主，主打现代粤式融合菜，周五午市推出点心套餐。"
        },
        {
          "name": "Star House Chinese Restaurant",
          "nameCn": "星家中餐厅",
          "lat": -34.9298,
          "lng": 138.5963,
          "rank": 3,
          "tier": "绝对必吃",
          "note": "39 Gouger St，每日提供正宗粤式点心，周末10:30起营业，是阿德莱德叹早茶的热门之选。"
        },
        {
          "name": "Xiao Long Kan Chinese Hot Pot",
          "nameCn": "小龙坎火锅",
          "lat": -34.9297,
          "lng": 138.5973,
          "rank": 4,
          "tier": "绝对必吃",
          "note": "123 Gouger St，国内连锁品牌在阿德莱德唯一分店，$78.80任吃加无限饮料，麻辣锅底地道。"
        },
        {
          "name": "Ming's Palace",
          "nameCn": "明宫中餐厅",
          "lat": -34.9298,
          "lng": 138.597,
          "rank": 5,
          "tier": "很推荐",
          "note": "157 Gouger St，经营逾30年的粤菜老字号，北京烤鸭桌边现片，是家庭聚餐与庆典首选。"
        },
        {
          "name": "Seng Kee Yum Cha",
          "nameCn": "成记饮茶",
          "lat": -34.9293,
          "lng": 138.5979,
          "rank": 6,
          "tier": "很推荐",
          "note": "Central Market Food Hall内，是阿德莱德最受推崇的点心餐厅之一，新鲜海鲜点心评价极高。"
        },
        {
          "name": "Golden Boy Thai Restaurant",
          "nameCn": "金仔泰国餐厅",
          "lat": -34.92,
          "lng": 138.6113,
          "rank": 7,
          "tier": "很推荐",
          "note": "309 North Terrace，紧邻东端，以新鲜食材诠释当代泰菜，连续多年获读者票选最佳泰餐。"
        },
        {
          "name": "Ky Chow Chinese Restaurant",
          "nameCn": "记超中餐厅",
          "lat": -34.9297,
          "lng": 138.5962,
          "rank": 8,
          "tier": "很推荐",
          "note": "27-29 Gouger St，唐人街性价比点心店，分量足、出品快，是留学生午市的亲民之选。"
        },
        {
          "name": "Wah Hing Restaurant",
          "nameCn": "华兴酒家",
          "lat": -34.9296,
          "lng": 138.5968,
          "rank": 9,
          "tier": "很推荐",
          "note": "85 Gouger St，以特色茶叶熏鸭著称，营造轻松食家氛围，粤菜川菜兼备。"
        },
        {
          "name": "House of Chow",
          "nameCn": "周家厨房",
          "lat": -34.9259,
          "lng": 138.6107,
          "rank": 10,
          "tier": "很推荐",
          "note": "82 Hutt St，经营自1983年，融汇沪菜、川菜、新加坡风味，菜单丰富且提供无麸质选择。"
        },
        {
          "name": "Ong Vietnamese Kitchen",
          "nameCn": "Ong越南厨房",
          "lat": -34.9228,
          "lng": 138.6003,
          "rank": 11,
          "tier": "很推荐",
          "note": "市中心清新越式餐厅，以鲜味河粉和姜黄椰汁鲈鱼著称，是爱好越南料理学生的打卡地。"
        },
        {
          "name": "Go'Go Japanese (Flinders Street)",
          "nameCn": "Go'Go日本料理",
          "lat": -34.928,
          "lng": 138.5993,
          "rank": 12,
          "tier": "一般",
          "note": "Flinders St日式拉面馆，设有机器人服务员送餐，菜单简洁聚焦品质，是留学生常推的日料。"
        },
        {
          "name": "Empress Restaurant (Yum Cha)",
          "nameCn": "皇后餐厅（点心）",
          "lat": -34.937,
          "lng": 138.6303,
          "rank": 13,
          "tier": "很推荐",
          "note": "351 Greenhill Rd，Toorak Gardens，港式传统点心每日午市现制，周末有特别菜单，稍远但值得。"
        },
        {
          "name": "Mamachau (Asian Fusion)",
          "nameCn": "Mamachau亚洲融合餐厅",
          "lat": -34.9226,
          "lng": 138.603,
          "rank": 14,
          "tier": "一般",
          "note": "市中心融合越式、日式、泰式于一体，包子与米碗最受好评，是午市快餐的热门选择。"
        },
        {
          "name": "Kiin Thai Restaurant",
          "nameCn": "Kiin泰式料理",
          "lat": -34.9238,
          "lng": 138.6018,
          "rank": 15,
          "tier": "一般",
          "note": "现代泰融合菜，食材以本地SA出产为主，用餐环境精致，是偶尔犒赏自己的好去处。"
        }
      ]
    },
    {
      "kind": "pointLayer",
      "key": "services",
      "label": "生活服务",
      "color": "#0e7490",
      "icon": "account_balance",
      "items": [
        {
          "name": "Commonwealth Bank (96-100 King William St)",
          "nameCn": "联邦银行（King William Street支行）",
          "lat": -34.9256,
          "lng": 138.6007,
          "rank": 1,
          "tier": "必去",
          "note": "国际留学生最推荐开户银行之一，可提前3个月在线申请账户，抵澳后携护照激活即可。"
        },
        {
          "name": "ANZ Bank (121 King William St)",
          "nameCn": "澳新银行（King William Street支行）",
          "lat": -34.9257,
          "lng": 138.6005,
          "rank": 2,
          "tier": "必去",
          "note": "澳大利亚四大银行之一，ANZ Student Access账户免月费，可在线申请并到店激活。"
        },
        {
          "name": "Royal Adelaide Hospital (RAH) Emergency",
          "nameCn": "皇家阿德莱德医院（急诊）",
          "lat": -34.9209,
          "lng": 138.5864,
          "rank": 3,
          "tier": "必去",
          "note": "阿德莱德最大公立医院，位于Port Road，急诊24小时开放，紧急情况首选就医地点。"
        },
        {
          "name": "University Health Practice (Horace Lamb Building, North Terrace)",
          "nameCn": "大学健康诊所（霍勒斯·兰姆大楼）",
          "lat": -34.9192,
          "lng": 138.6041,
          "rank": 4,
          "tier": "必去",
          "note": "校内全科诊所，周一至周五9am-5pm，持OSHC可在此问诊，是在校生最便捷的GP选择。"
        },
        {
          "name": "Chemist Warehouse (City Cross, 41 Gawler Place)",
          "nameCn": "Chemist Warehouse药房（城市十字路店）",
          "lat": -34.9225,
          "lng": 138.6031,
          "rank": 5,
          "tier": "强烈推荐",
          "note": "澳洲最大折扣药房连锁，维生素、OTC药品价格全城最低，距校步行约10分钟。"
        },
        {
          "name": "Priceline Pharmacy (Rundle Mall / Adelaide Central Plaza)",
          "nameCn": "Priceline药房（伦德尔Mall店）",
          "lat": -34.9228,
          "lng": 138.6023,
          "rank": 6,
          "tier": "强烈推荐",
          "note": "Rundle Mall内连锁美妆药房，自动化取药系统速度快，兼售护肤美妆品，日常买药最方便。"
        },
        {
          "name": "Optus (67 Rundle Mall)",
          "nameCn": "Optus电信营业厅（伦德尔Mall）",
          "lat": -34.9226,
          "lng": 138.6017,
          "rank": 7,
          "tier": "推荐",
          "note": "Rundle Mall内Optus直营店，留学生SIM卡首选，$30/月起含大流量套餐，店员熟悉留学生需求。"
        },
        {
          "name": "Telstra (33 Rundle Mall)",
          "nameCn": "Telstra电信营业厅（伦德尔Mall）",
          "lat": -34.9228,
          "lng": 138.6019,
          "rank": 8,
          "tier": "推荐",
          "note": "澳洲最大运营商直营店，网络覆盖最广，适合需要在偏远地区或旅行时保持连接的学生。"
        }
      ]
    },
    {
      "kind": "pointLayer",
      "key": "attractions",
      "label": "周边 / 打卡",
      "color": "#db2777",
      "icon": "photo_camera",
      "items": [
        {
          "name": "Glenelg Beach",
          "nameCn": "格莱内尔格海滩",
          "lat": -34.9808,
          "lng": 138.5152,
          "rank": 1,
          "tier": "必去",
          "note": "阿德莱德最受欢迎的海滨，距市区电车直达约30分钟，Jetty Road有餐厅与咖啡馆，适合周末放松。"
        },
        {
          "name": "Hahndorf (German Village)",
          "nameCn": "哈恩多夫德意志小镇",
          "lat": -35.0297,
          "lng": 138.8078,
          "rank": 2,
          "tier": "必去",
          "note": "距市区约30分钟车程，澳大利亚保存最完好的德国移民小镇，香肠、手工艺品与苹果酒驰名。"
        },
        {
          "name": "Adelaide Central Market",
          "nameCn": "阿德莱德中央市场（打卡体验）",
          "lat": -34.9296,
          "lng": 138.5979,
          "rank": 3,
          "tier": "必去",
          "note": "南半球最大室内市集，周二至周六开放，是感受阿德莱德市井生活与多元文化的最佳场所。"
        },
        {
          "name": "River Torrens Linear Park",
          "nameCn": "托伦斯河线性公园",
          "lat": -34.9185,
          "lng": 138.596,
          "rank": 4,
          "tier": "强烈推荐",
          "note": "贯穿阿德莱德的30公里绿道，从市中心可沿河步行或骑行，是最受欢迎的户外运动路线。"
        },
        {
          "name": "Adelaide Showground Farmers' Market",
          "nameCn": "阿德莱德展示场农夫市集",
          "lat": -34.9454,
          "lng": 138.5866,
          "rank": 5,
          "tier": "强烈推荐",
          "note": "每周日8:30-12:30，逾100家摊位，直销有机蔬果、巴罗萨乳酪与本地烘焙，是了解SA食材文化的好去处。"
        },
        {
          "name": "Adelaide Hills (Cleland Wildlife Park)",
          "nameCn": "阿德莱德山（克里兰野生动物园）",
          "lat": -34.9703,
          "lng": 138.6956,
          "rank": 6,
          "tier": "强烈推荐",
          "note": "距市区约30分钟，可与袋鼠、考拉近距接触，是体验澳洲本土动物的亲民选择。"
        },
        {
          "name": "Rundle Street & East End",
          "nameCn": "伦德尔街东端文艺区",
          "lat": -34.9213,
          "lng": 138.6117,
          "rank": 7,
          "tier": "强烈推荐",
          "note": "Golden Boy等时髦餐厅与咖啡馆聚集地，周末热闹非凡，是体验阿德莱德城市文艺气息的最佳街区。"
        },
        {
          "name": "Adelaide Oval Roof Climb",
          "nameCn": "阿德莱德椭圆体育场屋顶攀爬",
          "lat": -34.9155,
          "lng": 138.5962,
          "rank": 8,
          "tier": "推荐",
          "note": "以安全绳索攀爬体育场拱形屋顶，可360度俯瞰全城，是阿德莱德独一无二的体验活动。"
        }
      ]
    }
  ]
}
