{
  "id": "birmingham",
  "type": "school",
  "name": "University of Birmingham",
  "nameCn": "伯明翰大学",
  "city": "Birmingham",
  "center": [
    52.456,
    -1.928
  ],
  "zoom": 13,
  "blurb": "英国伯明翰大学:以爱德巴斯顿主校区为核心,辅以塞利奥克、瓦尔学生村、医学院/伊丽莎白女王医院教学区,及市中心 The Exchange 的多点布局红砖名校。",
  "features": [
    {
      "kind": "zone",
      "label": "校区 / 区域",
      "color": "#16a34a",
      "defaultOn": true,
      "items": [
        {
          "name": "Edgbaston Campus (Main)",
          "nameCn": "爱德巴斯顿主校区",
          "lat": 52.4505,
          "lng": -1.9305,
          "radius": 750,
          "note": "核心校区,以 Old Joe 钟塔为中心,绝大多数院系、图书馆、学生会皆在此。"
        },
        {
          "name": "The Vale Student Village",
          "nameCn": "瓦尔学生村",
          "lat": 52.4543,
          "lng": -1.9232,
          "radius": 350,
          "note": "主校区东北侧最大的本科生宿舍区,环湖而建,步行约 15 分钟到主校区。"
        },
        {
          "name": "Selly Oak Campus",
          "nameCn": "塞利奥克校区",
          "lat": 52.4358,
          "lng": -1.947,
          "radius": 420,
          "note": "主校区以南约 2 公里的绿地校区,教育学院/教师培训等使用。"
        },
        {
          "name": "Medical School & Queen Elizabeth Hospital",
          "nameCn": "医学院与伊丽莎白女王医院",
          "lat": 52.4517,
          "lng": -1.9431,
          "radius": 380,
          "note": "主校区西缘的医学院及教学医院区,临床医学教学与科研基地。"
        },
        {
          "name": "The Exchange (City Centre)",
          "nameCn": "The Exchange 市中心址",
          "lat": 52.479,
          "lng": -1.9088,
          "radius": 160,
          "note": "百年广场旁原市政银行改建的市中心活动/展览据点,2021 年启用。"
        }
      ]
    },
    {
      "kind": "pointLayer",
      "key": "department",
      "label": "院系 / 教学楼",
      "color": "#2563eb",
      "icon": "school",
      "items": [
        {
          "name": "Aston Webb Building (Great Hall & Chancellor's Court)",
          "nameCn": "阿斯顿·韦布大楼（大礼堂与校长庭院）",
          "lat": 52.456,
          "lng": -1.9307,
          "rank": 1,
          "tier": "必去",
          "note": "大学标志性拜占庭风格主楼，含大礼堂，是典礼和重大活动的核心场所，几乎所有宣传照的取景地。"
        },
        {
          "name": "Muirhead Tower (College of Social Sciences)",
          "nameCn": "穆尔黑德塔（社会科学学院）",
          "lat": 52.4555,
          "lng": -1.929,
          "rank": 2,
          "tier": "强烈推荐",
          "note": "16层地标式高楼，内设社会科学学院及卡伯里研究图书馆特藏部，是校园内最高的建筑之一。"
        },
        {
          "name": "Birmingham Law School",
          "nameCn": "伯明翰法学院（法律大楼）",
          "lat": 52.4565,
          "lng": -1.9326,
          "rank": 3,
          "tier": "强烈推荐",
          "note": "法学院教学楼，位于校园红区，QS排名靠前，是著名的法律研究中心。"
        },
        {
          "name": "Bramall Music Building",
          "nameCn": "布拉马尔音乐大楼",
          "lat": 52.4554,
          "lng": -1.932,
          "rank": 4,
          "tier": "强烈推荐",
          "note": "2012年落成的现代音乐中心，内含450座埃尔加音乐厅，是爱德华·埃尔加的纪念场所，获建筑大奖。"
        },
        {
          "name": "School of Computer Science (Y9 Building)",
          "nameCn": "计算机科学学院（Y9楼）",
          "lat": 52.4544,
          "lng": -1.9341,
          "rank": 5,
          "tier": "强烈推荐",
          "note": "位于校园黄区，靠近大学火车站，是工程与物理科学学院的重要教学与研究楼。"
        },
        {
          "name": "Arts Building",
          "nameCn": "艺术大楼",
          "lat": 52.4563,
          "lng": -1.9303,
          "rank": 6,
          "tier": "强烈推荐",
          "note": "人文学院核心教学楼，英语、历史、哲学等多个文科院系集中于此，紧邻主图书馆。"
        },
        {
          "name": "Poynting Building (Physics)",
          "nameCn": "波因廷物理楼",
          "lat": 52.4558,
          "lng": -1.9296,
          "rank": 7,
          "tier": "推荐",
          "note": "物理与天文学系所在地，以校友约翰·亨利·波因廷命名，位于校园红区。"
        },
        {
          "name": "School of Chemical Engineering (Y11)",
          "nameCn": "化学工程学院（Y11楼）",
          "lat": 52.4539,
          "lng": -1.9348,
          "rank": 8,
          "tier": "推荐",
          "note": "工程学院重要院系楼，与计算机、生化工程等楼共同构成校园理工区。"
        },
        {
          "name": "Strathcona Building (Social Sciences)",
          "nameCn": "斯特拉斯科纳楼（社科）",
          "lat": 52.4561,
          "lng": -1.9311,
          "rank": 9,
          "tier": "推荐",
          "note": "社会科学与教育学系的教学楼，位于校园中心区域。"
        },
        {
          "name": "Medical School (Vincent Drive)",
          "nameCn": "医学院（文森特大道）",
          "lat": 52.4524,
          "lng": -1.9412,
          "rank": 10,
          "tier": "推荐",
          "note": "紧邻伊丽莎白女王医院，是英国最大医学院之一，与NHS医院共享大量临床资源。"
        }
      ],
      "defaultOn": true
    },
    {
      "kind": "pointLayer",
      "key": "library",
      "label": "图书馆",
      "color": "#0891b2",
      "icon": "local_library",
      "items": [
        {
          "name": "Main Library",
          "nameCn": "主图书馆",
          "lat": 52.4556,
          "lng": -1.9301,
          "rank": 1,
          "tier": "必去",
          "note": "校园核心图书馆，藏书逾百万册，24小时开放自习室，是在校生最重要的学习资源中心。"
        },
        {
          "name": "Cadbury Research Library (Special Collections)",
          "nameCn": "卡伯里研究图书馆（特藏部）",
          "lat": 52.4555,
          "lng": -1.929,
          "rank": 2,
          "tier": "强烈推荐",
          "note": "位于穆尔黑德塔内，收藏珍贵历史档案、手稿及特别馆藏，适合人文与历史研究学者。"
        },
        {
          "name": "Barnes Library (Medical School)",
          "nameCn": "巴恩斯图书馆（医学院）",
          "lat": 52.4524,
          "lng": -1.9407,
          "rank": 3,
          "tier": "强烈推荐",
          "note": "医学院专属图书馆，位于文森特大道医学楼内，主要服务医科学生，藏有大量临床医学资料。"
        },
        {
          "name": "Barber Fine Art Library",
          "nameCn": "芭芭尔艺术图书馆",
          "lat": 52.4542,
          "lng": -1.9295,
          "rank": 4,
          "tier": "强烈推荐",
          "note": "位于芭芭尔艺术馆内，专门收藏艺术史与美术相关文献，是欧洲顶尖的艺术研究图书馆之一。"
        },
        {
          "name": "Murray Learning Centre",
          "nameCn": "穆雷学习中心",
          "lat": 52.4551,
          "lng": -1.9316,
          "rank": 5,
          "tier": "推荐",
          "note": "提供电脑集群、打印扫描及自习室，距大学火车站步行约4分钟，是课余自学的热门场所。"
        }
      ]
    },
    {
      "kind": "pointLayer",
      "key": "museum",
      "label": "博物馆 / 展馆",
      "color": "#9333ea",
      "icon": "museum",
      "items": [
        {
          "name": "Lapworth Museum of Geology",
          "nameCn": "拉普沃斯地质博物馆",
          "lat": 52.456,
          "lng": -1.9305,
          "rank": 1,
          "tier": "必去",
          "note": "英国最古老的地质博物馆之一，馆藏逾25万件标本含Roary异龙骨架，免费入场，校园内必打卡。"
        },
        {
          "name": "The Barber Institute of Fine Arts",
          "nameCn": "芭芭尔美术馆",
          "lat": 52.4542,
          "lng": -1.9295,
          "rank": 2,
          "tier": "必去",
          "note": "英国最佳小型欧洲绘画收藏之一，波提切利、莫奈、马奈等大师真迹，免费，建筑本身是Art Deco杰作（2026年翻修后重开）。"
        },
        {
          "name": "Winterbourne House and Garden",
          "nameCn": "温特伯恩庄园与花园",
          "lat": 52.453,
          "lng": -1.9283,
          "rank": 3,
          "tier": "强烈推荐",
          "note": "校园内艺术工艺风格庄园，七英亩植物园含6000余种植物，是闹中取静的打卡胜地。"
        },
        {
          "name": "Thinktank (Birmingham Science Museum)",
          "nameCn": "Thinktank 伯明翰科学博物馆",
          "lat": 52.4831,
          "lng": -1.8919,
          "rank": 4,
          "tier": "强烈推荐",
          "note": "市区 Millennium Point 内的综合科学博物馆，含天象馆和蒸汽机展览，适合周末出行。"
        },
        {
          "name": "Birmingham Museum & Art Gallery",
          "nameCn": "伯明翰博物馆与美术馆",
          "lat": 52.4806,
          "lng": -1.9032,
          "rank": 5,
          "tier": "强烈推荐",
          "note": "市中心Chamberlain广场上的旗舰博物馆，前拉斐尔派绘画收藏全球最丰，免费，可半日游。"
        },
        {
          "name": "Museum of the Jewellery Quarter",
          "nameCn": "珠宝区博物馆",
          "lat": 52.488,
          "lng": -1.9133,
          "rank": 6,
          "tier": "推荐",
          "note": "原汁原味保留的维多利亚式珠宝工坊，讲述伯明翰珠宝工业史，离城中心步行可达。"
        }
      ]
    },
    {
      "kind": "pointLayer",
      "key": "landmark",
      "label": "地标 / 学生中心",
      "color": "#64748b",
      "icon": "place",
      "items": [
        {
          "name": "Joseph Chamberlain Memorial Clock Tower (Old Joe)",
          "nameCn": "约瑟夫·张伯伦纪念钟楼（老乔）",
          "lat": 52.4558,
          "lng": -1.9308,
          "rank": 1,
          "tier": "必去",
          "note": "英国最高独立钟楼，以锡耶纳托雷·德尔·曼贾为原型，是伯明翰大学最具代表性的地标，留学生必拍。"
        },
        {
          "name": "Guild of Students",
          "nameCn": "学生公会（学生会）",
          "lat": 52.4537,
          "lng": -1.9337,
          "rank": 2,
          "tier": "必去",
          "note": "位于Edgbaston Park Road，含酒吧、餐厅、演出场所及200多个社团，是学生活动的枢纽中心。"
        },
        {
          "name": "The Bramall Music Building",
          "nameCn": "布拉马尔音乐大楼（埃尔加音乐厅）",
          "lat": 52.4554,
          "lng": -1.932,
          "rank": 3,
          "tier": "强烈推荐",
          "note": "半圆形红砖建筑的收尾之作，内含埃尔加音乐厅，既是教学楼也是公众可购票观演的音乐厅。"
        },
        {
          "name": "Munrow Sports Centre",
          "nameCn": "曼罗运动中心",
          "lat": 52.4531,
          "lng": -1.934,
          "rank": 4,
          "tier": "强烈推荐",
          "note": "55M英镑改建的世界级体育设施，含50米奥林匹克泳池、200站健身房与攀岩墙，在校生可优惠办卡。"
        },
        {
          "name": "Chancellor's Court",
          "nameCn": "校长庭院",
          "lat": 52.4557,
          "lng": -1.9306,
          "rank": 5,
          "tier": "强烈推荐",
          "note": "大学核心广场，被阿斯顿·韦布楼弧形建筑环抱，绿草如茵，开学典礼与毕业季的经典拍照圣地。"
        },
        {
          "name": "University of Birmingham Train Station",
          "nameCn": "伯明翰大学火车站",
          "lat": 52.4517,
          "lng": -1.9347,
          "rank": 6,
          "tier": "强烈推荐",
          "note": "校园内设专属火车站，10分钟可达市区新街站，是进出校园最便捷的交通节点。"
        },
        {
          "name": "The Vale Student Village",
          "nameCn": "Vale学生村",
          "lat": 52.4484,
          "lng": -1.9243,
          "rank": 7,
          "tier": "推荐",
          "note": "最大的学生宿舍区，配有湖景和独立健身房，距主校区步行约15-20分钟。"
        },
        {
          "name": "Edgbaston Cricket Ground",
          "nameCn": "埃奇巴斯顿板球场",
          "lat": 52.4557,
          "lng": -1.9023,
          "rank": 8,
          "tier": "推荐",
          "note": "英格兰顶级板球圣地，可容纳25000人，距校园步行约20分钟，赛季有精彩比赛可观看。"
        }
      ]
    },
    {
      "kind": "pointLayer",
      "key": "supermarket",
      "label": "超市 / 亚超",
      "color": "#ea580c",
      "icon": "shopping_cart",
      "items": [
        {
          "name": "Sainsbury's Selly Oak Superstore",
          "nameCn": "塞恩斯伯里大型超市（赛利橡树购物公园）",
          "lat": 52.4446,
          "lng": -1.9322,
          "rank": 1,
          "tier": "必去",
          "note": "距校园步行约20分钟或公交可达，品类齐全，是每周大采购首选，购物公园内还有其他零售店。"
        },
        {
          "name": "Aldi Selly Oak (Bristol Road)",
          "nameCn": "阿尔迪超市（赛利橡树布里斯托路）",
          "lat": 52.4454,
          "lng": -1.9322,
          "rank": 2,
          "tier": "强烈推荐",
          "note": "位于Bristol Road B29 6AE，价格亲民，深受学生欢迎，是日常采购的高性价比选择。"
        },
        {
          "name": "Tesco Express (479 Bristol Road)",
          "nameCn": "乐购便利店（479号布里斯托路）",
          "lat": 52.4479,
          "lng": -1.9317,
          "rank": 3,
          "tier": "强烈推荐",
          "note": "校区南侧布里斯托路上的便利店，步行可达，营业时间长，适合随时补充日用品。"
        },
        {
          "name": "Tesco Express (581 Bristol Road)",
          "nameCn": "乐购便利店（581号布里斯托路）",
          "lat": 52.4454,
          "lng": -1.9318,
          "rank": 4,
          "tier": "推荐",
          "note": "紧邻各亚洲餐馆和Yakinori，方便饭后顺路购物的便利店。"
        },
        {
          "name": "Taste the Orient (Asian Supermarket)",
          "nameCn": "东方之味亚洲超市",
          "lat": 52.4454,
          "lng": -1.9323,
          "rank": 5,
          "tier": "必去",
          "note": "510 Bristol Road，伯明翰首家大型中国/亚洲超市，面积3850平方英尺，中式食材、调料、零食应有尽有，留学生必逛。"
        },
        {
          "name": "Seoul Plaza (Asian Grocery)",
          "nameCn": "首尔广场亚洲杂货店",
          "lat": 52.4456,
          "lng": -1.9321,
          "rank": 6,
          "tier": "强烈推荐",
          "note": "位于Bristol Road，提供中国、韩国、日本、东南亚食材，与东方之味相距不远，是购买泡菜等韩货的好去处。"
        },
        {
          "name": "Waitrose Harborne",
          "nameCn": "维特罗斯超市（哈伯恩）",
          "lat": 52.46,
          "lng": -1.9489,
          "rank": 7,
          "tier": "推荐",
          "note": "哈伯恩村高街上的品质超市，步行约20分钟，适合偶尔购买品质食材和进口食品。"
        }
      ]
    },
    {
      "kind": "pointLayer",
      "key": "dining",
      "label": "必吃 / 餐饮",
      "color": "#dc2626",
      "icon": "restaurant",
      "items": [
        {
          "name": "Sichuan Garden (豆瓣匠 Sichuan Cuisine)",
          "nameCn": "豆瓣匠川菜馆",
          "lat": 52.4454,
          "lng": -1.9323,
          "rank": 1,
          "tier": "绝对必吃",
          "note": "590-592 Bristol Road，校区旁口碑最佳川菜馆，正宗麻辣口味，深受中国学生强烈推荐，是留学生的家乡味道。"
        },
        {
          "name": "Yakinori Selly Oak",
          "nameCn": "Yakinori日式料理（赛利橡树）",
          "lat": 52.446,
          "lng": -1.9319,
          "rank": 2,
          "tier": "绝对必吃",
          "note": "520 Bristol Road，日式拉面、寿司和便当，卫生评级5星，紧邻学校，是附近学生最常光顾的亚洲餐厅之一。"
        },
        {
          "name": "Kimchi Korean Restaurant",
          "nameCn": "泡菜韩国餐厅",
          "lat": 52.4454,
          "lng": -1.9331,
          "rank": 3,
          "tier": "绝对必吃",
          "note": "2-4 Dawlish Road，正宗韩国家常菜，学生套餐超划算（午市6.99含石锅拌饭+味噌汤+泡菜+饮料），口碑极佳。"
        },
        {
          "name": "Chung Ying Cantonese Restaurant",
          "nameCn": "松苑粤菜酒家",
          "lat": 52.4755,
          "lng": -1.8989,
          "rank": 4,
          "tier": "绝对必吃",
          "note": "16-18 Wrottesley Street唐人街，英国最佳粤菜餐厅之一，逾65款点心，多次获伯明翰年度餐厅奖，周末必订位。"
        },
        {
          "name": "Happy Lamb Hot Pot",
          "nameCn": "快乐小羊火锅",
          "lat": 52.477,
          "lng": -1.898,
          "rank": 5,
          "tier": "绝对必吃",
          "note": "21 Ladywell Walk唐人街，伦敦连锁进驻伯明翰，正宗内蒙古羊肉清汤火锅，午市自助约20英镑，聚餐首选。"
        },
        {
          "name": "Ming Moon Chinese Restaurant",
          "nameCn": "明月中餐厅",
          "lat": 52.4757,
          "lng": -1.8963,
          "rank": 6,
          "tier": "很推荐",
          "note": "16 Hurst Street，唐人街大型全你食+卡拉OK餐厅，泛亚菜式丰富，气氛热闹，适合节庆聚会。"
        },
        {
          "name": "Café Soya",
          "nameCn": "豆香咖啡（Cafe Soya）",
          "lat": 52.4752,
          "lng": -1.8972,
          "rank": 7,
          "tier": "很推荐",
          "note": "Arcadian Centre唐人街，中越融合菜，素食/纯素选项丰富，超过20年老店，学生聚餐性价比高。"
        },
        {
          "name": "Tattu Birmingham",
          "nameCn": "Tattu中餐厅（创意中国菜）",
          "lat": 52.4831,
          "lng": -1.9023,
          "rank": 8,
          "tier": "很推荐",
          "note": "18 Barwick Street，时尚现代中餐+鸡尾酒吧，精致环境适合节日庆典，中西合璧创意菜式，网红打卡地。"
        },
        {
          "name": "Shababs Balti Restaurant",
          "nameCn": "沙巴斯巴尔提餐厅",
          "lat": 52.4609,
          "lng": -1.8832,
          "rank": 9,
          "tier": "很推荐",
          "note": "163-165 Ladypool Road，巴尔提三角区经典名店，1987年创立，BBC《饥饿骑手》推荐，体验伯明翰独创巴尔提咖喱的必去之处。"
        },
        {
          "name": "Dilshad International Restaurant",
          "nameCn": "迪尔沙德国际餐厅",
          "lat": 52.445,
          "lng": -1.9305,
          "rank": 10,
          "tier": "很推荐",
          "note": "Bristol Road附近，提供正宗印巴菜，多次获评最佳印度菜，本地学生和家长探访时常去。"
        },
        {
          "name": "Sundarbon Restaurant",
          "nameCn": "桑达班孟加拉印度餐厅",
          "lat": 52.445,
          "lng": -1.9316,
          "rank": 11,
          "tier": "一般",
          "note": "596-598 Bristol Road，孟加拉/印度菜外卖与堂食，价格实惠，是布里斯托路上的老牌南亚食堂。"
        },
        {
          "name": "Golden City Chinese Restaurant",
          "nameCn": "金城中餐厅",
          "lat": 52.4453,
          "lng": -1.932,
          "rank": 12,
          "tier": "一般",
          "note": "558 Bristol Road，普通粤式中餐外卖，价位低廉分量足，适合学生宵夜，但整体水准一般。"
        }
      ]
    },
    {
      "kind": "pointLayer",
      "key": "services",
      "label": "生活服务",
      "color": "#0e7490",
      "icon": "account_balance",
      "items": [
        {
          "name": "University Medical Practice",
          "nameCn": "伯明翰大学医疗实践（校区GP诊所）",
          "lat": 52.4548,
          "lng": -1.9311,
          "rank": 1,
          "tier": "必去",
          "note": "5 Pritchatts Road（B15 2QU），专为在校学生及周边居民服务，是入学首选GP注册地，现接受新患者，开学即注册。"
        },
        {
          "name": "Queen Elizabeth Hospital Birmingham",
          "nameCn": "伊丽莎白女王医院",
          "lat": 52.451,
          "lng": -1.9392,
          "rank": 2,
          "tier": "强烈推荐",
          "note": "Mindelsohn Way（B15 2GW），校园旁英国顶级教学医院，急诊24小时，是学生就医的最近大型NHS医院。"
        },
        {
          "name": "Lloyds Bank Selly Oak",
          "nameCn": "劳埃德银行（赛利橡树支行）",
          "lat": 52.4453,
          "lng": -1.9326,
          "rank": 3,
          "tier": "强烈推荐",
          "note": "16 Oaktree Lane（B29 6HX），距校区近，开学后可开英镑学生账户，需携带护照+在读证明+地址证明。"
        },
        {
          "name": "Barclays Bank University Branch",
          "nameCn": "巴克莱银行（大学支行）",
          "lat": 52.4538,
          "lng": -1.9337,
          "rank": 4,
          "tier": "强烈推荐",
          "note": "位于Edgbaston Park Road附近（B15 2TT），紧邻学生公会，是在校生开户最便利的选择之一。"
        },
        {
          "name": "Boots Pharmacy (Bristol Road / Selly Oak)",
          "nameCn": "Boots药店（布里斯托路）",
          "lat": 52.4453,
          "lng": -1.9323,
          "rank": 5,
          "tier": "强烈推荐",
          "note": "赛利橡树区Boots分店，提供处方药、OTC药品及日用护理品，含NHS处方取药服务。"
        },
        {
          "name": "Lloyds Pharmacy Selly Oak",
          "nameCn": "劳埃德药店（赛利橡树）",
          "lat": 52.4452,
          "lng": -1.9328,
          "rank": 6,
          "tier": "推荐",
          "note": "位于B29 5QH，赛利橡树另一家主要药房，与Boots同在转盘附近，方便学生取药及购买日常保健品。"
        },
        {
          "name": "O2 Store Birmingham New Street",
          "nameCn": "O2手机营业厅（新街）",
          "lat": 52.4791,
          "lng": -1.8996,
          "rank": 7,
          "tier": "推荐",
          "note": "24 New Street（B2 4RQ），市区主要手机运营商门店，可办理SIM卡及手机合约，留学生入境后首选开通英国号码。"
        },
        {
          "name": "HSBC Birmingham New Street",
          "nameCn": "汇丰银行（新街支行）",
          "lat": 52.4793,
          "lng": -1.9,
          "rank": 8,
          "tier": "推荐",
          "note": "130 New Street（B2 4JU），赛利橡树附近无汇丰分行，需前往市区，汇丰对国际学生较友好，可尝试开立国际学生账户。"
        }
      ]
    },
    {
      "kind": "pointLayer",
      "key": "attractions",
      "label": "周边 / 打卡",
      "color": "#db2777",
      "icon": "photo_camera",
      "items": [
        {
          "name": "Cadbury World (Bournville)",
          "nameCn": "吉百利巧克力世界（伯恩维尔）",
          "lat": 52.4288,
          "lng": -1.9316,
          "rank": 1,
          "tier": "必去",
          "note": "69 Linden Road，世界著名巧克力体验馆，距校园仅10分钟车程，含4D影院和巧克力骑乘项目，是朋友聚游的强烈推荐目的地。"
        },
        {
          "name": "Birmingham Chinatown (Arcadian Centre)",
          "nameCn": "伯明翰唐人街（Arcadian中心）",
          "lat": 52.4755,
          "lng": -1.8973,
          "rank": 2,
          "tier": "必去",
          "note": "Hurst Street附近，英国第三大唐人街，汇集粤菜、川菜、越南菜及亚洲超市，是解乡愁的最佳去处。"
        },
        {
          "name": "Bullring & Grand Central (Selfridges)",
          "nameCn": "牛环购物中心（塞尔福里奇百货）",
          "lat": 52.4776,
          "lng": -1.8945,
          "rank": 3,
          "tier": "必去",
          "note": "伯明翰地标购物中心，塞尔福里奇特色圆盘外墙举世闻名，含Grand Central候车厅，是购物与城市探索的起点。"
        },
        {
          "name": "Brindleyplace & Gas Street Basin",
          "nameCn": "布林德利广场与燃气街运河盆地",
          "lat": 52.4776,
          "lng": -1.9055,
          "rank": 4,
          "tier": "必去",
          "note": "伯明翰城市运河的心脏地带，酒吧、餐厅和文化场所林立，是周末放松漫步的理想目的地。"
        },
        {
          "name": "Jewellery Quarter",
          "nameCn": "珠宝区",
          "lat": 52.488,
          "lng": -1.9092,
          "rank": 5,
          "tier": "强烈推荐",
          "note": "欧洲最大珠宝商业区，200余幢古建筑，含珠宝区博物馆和笔博物馆，逛街购物兼具文化体验。"
        },
        {
          "name": "Digbeth Creative Quarter (Custard Factory)",
          "nameCn": "迪格贝斯创意区（奶黄厂）",
          "lat": 52.4753,
          "lng": -1.8842,
          "rank": 6,
          "tier": "强烈推荐",
          "note": "Gibb Street，英国最潮创意街区，被《星期日泰晤士报》评为全国最酷街区，独立艺廊、街头艺术、咖啡馆与夜生活俱全。"
        },
        {
          "name": "Birmingham Museum & Art Gallery",
          "nameCn": "伯明翰博物馆与美术馆",
          "lat": 52.4806,
          "lng": -1.9032,
          "rank": 7,
          "tier": "强烈推荐",
          "note": "市中心Chamberlain广场，免费入场，前拉斐尔派收藏全球最丰，周末城市游必访。"
        },
        {
          "name": "Harborne Village",
          "nameCn": "哈伯恩村高街",
          "lat": 52.46,
          "lng": -1.9488,
          "rank": 8,
          "tier": "强烈推荐",
          "note": "距校园步行20分钟，精品独立餐厅、咖啡馆和Waitrose小镇风情，是周末散步购物的理想去处。"
        },
        {
          "name": "Birmingham Botanical Gardens",
          "nameCn": "伯明翰植物园",
          "lat": 52.4563,
          "lng": -1.9467,
          "rank": 9,
          "tier": "强烈推荐",
          "note": "Westbourne Road（B15 3TR），15英亩等级二历史名园，毗邻校园，学生证可优惠，春夏赏花的绿洲。"
        },
        {
          "name": "National SEA LIFE Centre Birmingham",
          "nameCn": "国家海洋生命中心",
          "lat": 52.4778,
          "lng": -1.9062,
          "rank": 10,
          "tier": "推荐",
          "note": "Brindleyplace The Water's Edge（B1 2HL），英国唯一360度海洋隧道，含企鹅和海獭，适合与家人游览。"
        },
        {
          "name": "Ikon Gallery",
          "nameCn": "图标画廊（当代艺术）",
          "lat": 52.4773,
          "lng": -1.9063,
          "rank": 11,
          "tier": "推荐",
          "note": "1 Oozells Square Brindleyplace（B1 2HS），免费当代艺术画廊，定期举办国际级展览，艺术爱好者不可错过。"
        },
        {
          "name": "Edgbaston Cricket Ground",
          "nameCn": "埃奇巴斯顿板球场",
          "lat": 52.4557,
          "lng": -1.9023,
          "rank": 12,
          "tier": "推荐",
          "note": "Edgbaston Road，英格兰最历史悠久的板球场之一，比赛日氛围热烈，体验英式运动文化的绝佳机会。"
        },
        {
          "name": "Winterbourne House and Garden",
          "nameCn": "温特伯恩庄园花园",
          "lat": 52.453,
          "lng": -1.9283,
          "rank": 13,
          "tier": "推荐",
          "note": "58 Edgbaston Park Road校内，艺术工艺风格庄园与植物园，近在咫尺的宁静打卡地，春季花开最美。"
        }
      ]
    }
  ]
}
