{
  "id": "la-trobe-university",
  "type": "school",
  "name": "La Trobe University",
  "nameCn": "拉筹伯大学",
  "city": "Melbourne",
  "center": [
    -37.72179,
    145.047909
  ],
  "zoom": 13,
  "blurb": "拉筹伯大学的主校区坐落于墨尔本北郊 Bundoora，占地 235 公顷，是澳大利亚最大的城市校园，绿地、湖泊与野生动物保护区环绕；另在 Collins 街市中心设研究生城市校区，并辐射 Bendigo、Albury-Wodonga 等多个区域校区。",
  "features": [
    {
      "kind": "zone",
      "label": "校区 / 区域",
      "color": "#16a34a",
      "defaultOn": true,
      "items": [
        {
          "name": "Melbourne (Bundoora) Campus",
          "nameCn": "墨尔本 Bundoora 主校区",
          "lat": -37.72179,
          "lng": 145.047909,
          "radius": 1400,
          "note": "235 公顷主校区，全澳最大城市校园，学术与生活核心区。"
        },
        {
          "name": "Research & Development Park / AgriBio Precinct",
          "nameCn": "研发园区与 AgriBio 农业生物科技中心",
          "lat": -37.7182,
          "lng": 145.0435,
          "radius": 500,
          "note": "校区西北角科研与产业创新带，含 AgriBio 农业生物中心。"
        },
        {
          "name": "La Trobe Sports Park",
          "nameCn": "拉筹伯体育公园",
          "lat": -37.7266,
          "lng": 145.0502,
          "radius": 450,
          "note": "南侧运动精修区，含墨尔本城足球俱乐部训练基地与运动场。"
        },
        {
          "name": "Melbourne City Campus (360 Collins St)",
          "nameCn": "墨尔本城市校区（Collins 街 360 号）",
          "lat": -37.8163,
          "lng": 144.9623,
          "radius": 250,
          "note": "市中心 CBD 研究生授课点，距主校区约 12 公里。"
        }
      ]
    },
    {
      "kind": "pointLayer",
      "key": "department",
      "label": "院系 / 教学楼",
      "color": "#2563eb",
      "icon": "school",
      "items": [
        {
          "name": "David Myers Building",
          "nameCn": "David Myers 大楼",
          "lat": -37.7213,
          "lng": 145.0469,
          "note": "校区核心教学楼之一，标志性高架连廊建筑。"
        },
        {
          "name": "Martin Building",
          "nameCn": "Martin 大楼",
          "lat": -37.7222,
          "lng": 145.0463,
          "note": "原始国际风格教学楼，人文社科院系所在。"
        },
        {
          "name": "Health Sciences Building",
          "nameCn": "健康科学大楼",
          "lat": -37.7206,
          "lng": 145.049,
          "note": "护理、物理治疗与健康科学院系核心。"
        },
        {
          "name": "George Singer Building",
          "nameCn": "George Singer 大楼",
          "lat": -37.7229,
          "lng": 145.0455,
          "note": "心理学与行为科学教学研究楼。"
        },
        {
          "name": "La Trobe Institute for Molecular Science (LIMS)",
          "nameCn": "拉筹伯分子科学研究院（LIMS）",
          "lat": -37.7232,
          "lng": 145.0446,
          "note": "生化、遗传、化学、物理与药学三栋研究建筑群。"
        }
      ],
      "defaultOn": true
    },
    {
      "kind": "pointLayer",
      "key": "library",
      "label": "图书馆",
      "color": "#0891b2",
      "icon": "local_library",
      "items": [
        {
          "name": "Borchardt Library",
          "nameCn": "Borchardt 图书馆",
          "lat": -37.72145,
          "lng": 145.0483,
          "note": "主图书馆，藏书逾百万册，紧邻 Agora 广场。"
        }
      ]
    },
    {
      "kind": "pointLayer",
      "key": "landmark",
      "label": "地标 / 学生中心",
      "color": "#64748b",
      "icon": "place",
      "items": [
        {
          "name": "The Agora",
          "nameCn": "Agora 中央广场",
          "lat": -37.72185,
          "lng": 145.0479,
          "note": "校园心脏地带，餐饮、剧院与学生服务汇聚的中庭。"
        },
        {
          "name": "Nangak Tamboree Wildlife Sanctuary",
          "nameCn": "Nangak Tamboree 野生动物保护区",
          "lat": -37.7246,
          "lng": 145.0528,
          "note": "校区东南湖泊湿地保护区，校园绿色名片。"
        },
        {
          "name": "Melbourne City FC Training Facility",
          "nameCn": "墨尔本城足球俱乐部训练基地",
          "lat": -37.7261,
          "lng": 145.0498,
          "note": "1500 万澳元职业足球训练场，位于体育公园内。"
        }
      ]
    },
    {
      "kind": "pointLayer",
      "key": "supermarket",
      "label": "超市 / 亚超",
      "color": "#ea580c",
      "icon": "shopping_cart",
      "items": [
        {
          "name": "Woolworths Polaris",
          "nameCn": "Woolworths 超市（Polaris 店）",
          "lat": -37.712821,
          "lng": 145.047595,
          "note": "距校园步行约10分钟，最近的主流大超市，日常生鲜杂货首选，旁边还有 Dan Murphy's 酒类。"
        },
        {
          "name": "Coles Uni Hill Town Centre",
          "nameCn": "Coles 超市（Uni Hill 店）",
          "lat": -37.7255,
          "lng": 145.028105,
          "note": "位于 Uni Hill 商业中心，另一大主流超市，常和 Aldi 一起比价采购。"
        },
        {
          "name": "Good N More Asian Grocery",
          "nameCn": "Good N More 亚洲超市",
          "lat": -37.712815,
          "lng": 145.048363,
          "note": "Polaris 商圈内的亚洲超市，中餐调料、米面、火锅底料、亚洲零食都能买到，离校最近的亚超。"
        },
        {
          "name": "Agora IGA Xpress",
          "nameCn": "Agora IGA 便利超市",
          "lat": -37.720637,
          "lng": 145.048772,
          "note": "紧邻校园南侧的小型超市，临时缺米缺菜、深夜补货很方便。"
        },
        {
          "name": "ALDI Bundoora",
          "nameCn": "ALDI 超市（Bundoora 店）",
          "lat": -37.724802,
          "lng": 145.028982,
          "note": "Uni Hill 一带的平价超市，预算党囤货首选，自有品牌便宜量大。"
        }
      ]
    },
    {
      "kind": "pointLayer",
      "key": "dining",
      "label": "必吃 / 餐饮",
      "color": "#dc2626",
      "icon": "restaurant",
      "items": [
        {
          "name": "Mimi's / Polaris Dumpling Kitchen",
          "nameCn": "水饺王（Polaris 饺子馆）",
          "lat": -37.712815,
          "lng": 145.048266,
          "note": "Polaris 商圈高人气中餐饺子馆，手工水饺和家常小炒，留学生食堂级别的存在。"
        },
        {
          "name": "Pho 999",
          "nameCn": "Pho 999 越南粉",
          "lat": -37.712918,
          "lng": 145.048363,
          "note": "地道越南河粉店，一碗热汤粉性价比高，冬天暖胃刚需。"
        },
        {
          "name": "Mamak Mamak Rice & Noodle",
          "nameCn": "Mamak 马来风味饭面",
          "lat": -37.721001,
          "lng": 145.048297,
          "note": "紧靠校园的马来西亚/东南亚菜，叻沙、椰浆饭、海南鸡饭，亚洲胃救星。"
        },
        {
          "name": "Myoshi Sushi",
          "nameCn": "Myoshi 寿司",
          "lat": -37.71311,
          "lng": 145.047611,
          "note": "Polaris 内的日式寿司，午餐便当和寿司卷快捷实惠，适合课间快速解决。"
        },
        {
          "name": "Giorgio's Charcoal Chicken",
          "nameCn": "Giorgio's 炭烤鸡",
          "lat": -37.712818,
          "lng": 145.047807,
          "note": "澳式炭烤全鸡配薯角，本地人吃法，外带一只全家份量超划算。"
        },
        {
          "name": "Kingsbury Fish Shop",
          "nameCn": "Kingsbury 炸鱼薯条店",
          "lat": -37.719272,
          "lng": 145.038082,
          "note": "传统澳式 Fish & Chips 老店，体验本地国民快餐就来这儿。"
        }
      ]
    },
    {
      "kind": "pointLayer",
      "key": "services",
      "label": "生活服务",
      "color": "#0e7490",
      "icon": "account_balance",
      "items": [
        {
          "name": "ANZ Bank / ATM (Polaris)",
          "nameCn": "ANZ 银行/ATM（Polaris）",
          "lat": -37.720999,
          "lng": 145.048195,
          "note": "紧贴校园边的 ANZ 网点与 ATM，留学生开户、取现、汇款就近办理。"
        },
        {
          "name": "Bank of Melbourne (Uni Hill)",
          "nameCn": "墨尔本银行（Uni Hill）",
          "lat": -37.725085,
          "lng": 145.028164,
          "note": "Uni Hill 商业中心的银行网点，另一开户选择，旁边即 Commonwealth Bank。"
        },
        {
          "name": "Chemist Warehouse Polaris",
          "nameCn": "Chemist Warehouse 药房（Polaris）",
          "lat": -37.712364,
          "lng": 145.048443,
          "note": "澳洲最大连锁平价药房，感冒药、处方药、维生素、日用品一站买齐。"
        },
        {
          "name": "La Trobe Private Hospital",
          "nameCn": "拉筹伯私立医院",
          "lat": -37.71589,
          "lng": 145.044497,
          "note": "校园西侧最近的医院，看急诊/就医方便（校内另设 Medical Centre 学生健康中心）。"
        }
      ]
    },
    {
      "kind": "pointLayer",
      "key": "attractions",
      "label": "周边 / 打卡",
      "color": "#db2777",
      "icon": "photo_camera",
      "items": [
        {
          "name": "Nangak Tamboree Wildlife Sanctuary",
          "nameCn": "Nangak Tamboree 野生动物保护区（原拉筹伯野生动物园）",
          "lat": -37.717368,
          "lng": 145.055318,
          "note": "校园东侧的湿地野生动物保护区，可看袋鼠、水鸟，散步观鸟拍照的世外桃源。"
        },
        {
          "name": "La Trobe University Museum of Art (LUMA) & Sculpture Park",
          "nameCn": "拉筹伯大学艺术博物馆（LUMA）与雕塑公园",
          "lat": -37.720658,
          "lng": 145.05123,
          "note": "校内免费艺术博物馆＋户外雕塑公园，看展、晒太阳、出片两不误。"
        },
        {
          "name": "Bundoora Park",
          "nameCn": "Bundoora 公园（含农场）",
          "lat": -37.705625,
          "lng": 145.040023,
          "note": "大型城市公园带农场体验区，可喂动物、骑行、野餐，周末遛弯好去处。"
        },
        {
          "name": "Mount Cooper Reserve Lookout",
          "nameCn": "库珀山保护区观景点",
          "lat": -37.700914,
          "lng": 145.05066,
          "note": "附近制高点，可俯瞰墨尔本北郊与远处 CBD 天际线，傍晚看日落很赞。"
        }
      ]
    }
  ]
}
