{
  "id": "melbourne",
  "type": "school",
  "name": "University of Melbourne",
  "nameCn": "墨尔本大学",
  "city": "Melbourne",
  "center": [
    -37.7963,
    144.9614
  ],
  "zoom": 13,
  "blurb": "墨尔本大学是澳洲最古老的学府之一，主校区坐落于市中心以北的帕克维尔历史街区，绿草成荫、古典哥特建筑与现代研究楼交错，并辐射出横跨大墨尔本与维多利亚乡村的六个专业校区。",
  "features": [
    {
      "kind": "zone",
      "label": "校区 / 区域",
      "color": "#16a34a",
      "defaultOn": true,
      "items": [
        {
          "name": "Parkville Campus",
          "nameCn": "帕克维尔主校区",
          "lat": -37.7963,
          "lng": 144.9614,
          "radius": 700,
          "note": "1853年创立的主校区，十大学院与核心研究中心所在地。"
        },
        {
          "name": "Southbank Campus",
          "nameCn": "南岸校区",
          "lat": -37.8247,
          "lng": 144.9702,
          "radius": 400,
          "note": "维多利亚艺术学院与墨尔本音乐学院，表演与视觉艺术教学地。"
        },
        {
          "name": "Burnley Campus",
          "nameCn": "伯恩利校区",
          "lat": -37.8288,
          "lng": 145.0228,
          "radius": 450,
          "note": "亚拉河畔的园艺与景观园林教学校区。"
        },
        {
          "name": "Werribee Campus",
          "nameCn": "韦里比校区",
          "lat": -37.889,
          "lng": 144.6933,
          "radius": 600,
          "note": "兽医学院及U-Vet动物医院，市区西南约30公里。"
        },
        {
          "name": "Creswick Campus",
          "nameCn": "克雷斯威克校区",
          "lat": -37.4228,
          "lng": 143.8991,
          "radius": 500,
          "note": "维州乡村的森林与生态系统科学校区，邻近原生林。"
        },
        {
          "name": "Dookie Campus",
          "nameCn": "杜基校区",
          "lat": -36.3842,
          "lng": 145.7144,
          "radius": 900,
          "note": "2440公顷农业校区，含机器人牧场、酒庄与果园。"
        },
        {
          "name": "Shepparton Campus",
          "nameCn": "谢珀顿校区",
          "lat": -36.3622,
          "lng": 145.4062,
          "radius": 300,
          "note": "医学院乡村临床学院与乡村健康学术中心。"
        }
      ]
    },
    {
      "kind": "pointLayer",
      "key": "department",
      "label": "院系 / 教学楼",
      "color": "#2563eb",
      "icon": "school",
      "items": [
        {
          "name": "Melbourne Law School (Building 106)",
          "nameCn": "墨尔本法学院",
          "lat": -37.8024,
          "lng": 144.96,
          "rank": 1,
          "tier": "必去",
          "note": "全澳排名第一的法学院，位于 185 Pelham Street，设施现代，毕业生就业率极高"
        },
        {
          "name": "Faculty of Medicine, Dentistry & Health Sciences – Medical Building (Building 181)",
          "nameCn": "医学牙科与健康科学学院（医学楼）",
          "lat": -37.7997,
          "lng": 144.9556,
          "rank": 2,
          "tier": "必去",
          "note": "澳洲顶尖医学院所在地，位于 Grattan Street，紧邻皇家墨尔本医院"
        },
        {
          "name": "Faculty of Engineering & IT – Melbourne Connect (Building 290/291)",
          "nameCn": "工程与信息技术学院（墨尔本创新枢纽）",
          "lat": -37.7998,
          "lng": 144.9633,
          "rank": 3,
          "tier": "必去",
          "note": "700 Swanston Street 综合创新园区，工程与 IT 核心教学科研重地，设施国际一流"
        },
        {
          "name": "Faculty of Business & Economics – FBE Building (Building 105)",
          "nameCn": "商业与经济学院（FBE 大楼）",
          "lat": -37.802,
          "lng": 144.9607,
          "rank": 4,
          "tier": "必去",
          "note": "198 Berkeley Street，六星绿建标准，Giblin Eunson 图书馆即在此楼内"
        },
        {
          "name": "Old Arts Building (Building 149)",
          "nameCn": "老文学楼",
          "lat": -37.7983,
          "lng": 144.9596,
          "rank": 5,
          "tier": "强烈推荐",
          "note": "人文与社会科学的核心教学楼，哥特复兴式外立面，也是最多通识课的上课地"
        },
        {
          "name": "Alan Gilbert Building (Building 104)",
          "nameCn": "Alan Gilbert 大楼",
          "lat": -37.8009,
          "lng": 144.9598,
          "rank": 6,
          "tier": "强烈推荐",
          "note": "弧形玻璃幕墙立面标志性建筑，医学与健康科学大型教室及会议室集中地"
        },
        {
          "name": "Peter Hall Building – School of Maths & Statistics (Building 160)",
          "nameCn": "Peter Hall 楼（数学统计学院）",
          "lat": -37.7987,
          "lng": 144.9635,
          "rank": 7,
          "tier": "强烈推荐",
          "note": "数学与统计学院主楼，靠近 Swanston Street 1 号电车站，理学院学生必到之处"
        },
        {
          "name": "Elisabeth Murdoch Building (Building 134) – Arts Faculty",
          "nameCn": "Elisabeth Murdoch 大楼（文学院）",
          "lat": -37.7979,
          "lng": 144.9588,
          "rank": 8,
          "tier": "推荐",
          "note": "文学院核心大楼，毗邻 Baillieu 图书馆，语言学、历史学、心理学多课程在此开设"
        },
        {
          "name": "The Spot (Building 110) – Commerce & Economics",
          "nameCn": "The Spot 大楼",
          "lat": -37.8023,
          "lng": 144.9606,
          "rank": 9,
          "tier": "推荐",
          "note": "Berkeley Street 与 Pelham Street 交界，商科和经济系学生的日常自习与上课地"
        },
        {
          "name": "Royal Dental Hospital & Melbourne Dental Clinic (Building 348)",
          "nameCn": "皇家牙科医院暨牙学院",
          "lat": -37.8013,
          "lng": 144.9636,
          "rank": 10,
          "tier": "推荐",
          "note": "720 Swanston Street，澳洲最大牙科教学诊所，可提供低价学生诊疗服务"
        }
      ],
      "defaultOn": true
    },
    {
      "kind": "pointLayer",
      "key": "library",
      "label": "图书馆",
      "color": "#0891b2",
      "icon": "local_library",
      "items": [
        {
          "name": "Baillieu Library (Building 177)",
          "nameCn": "Baillieu 图书馆",
          "lat": -37.7984,
          "lng": 144.9602,
          "rank": 1,
          "tier": "必去",
          "note": "全校最大综合图书馆，收藏人文社科资料，设珍本阅览室和通宵自习区，是全校最受欢迎的自习场所"
        },
        {
          "name": "ERC Library – Eastern Resource Centre (Building 171)",
          "nameCn": "东部资源中心图书馆（ERC）",
          "lat": -37.7975,
          "lng": 144.9643,
          "rank": 2,
          "tier": "必去",
          "note": "理工科资料最全，2-3 楼为静音区，地下室和 1 楼设可预约小组讨论室，考期人气极旺"
        },
        {
          "name": "Giblin Eunson Library (FBE Building 105)",
          "nameCn": "Giblin Eunson 图书馆",
          "lat": -37.802,
          "lng": 144.9607,
          "rank": 3,
          "tier": "必去",
          "note": "专攻商科、经济、教育资料，位于 FBE 大楼内，提供录音设施和 24 小时自习区"
        },
        {
          "name": "Law Library (Building 106)",
          "nameCn": "法学图书馆",
          "lat": -37.8024,
          "lng": 144.9601,
          "rank": 4,
          "tier": "强烈推荐",
          "note": "法学院专属资料库，收藏法律期刊数量位列澳洲大学法学图书馆前列，设安静阅览区"
        },
        {
          "name": "State Library Victoria",
          "nameCn": "维多利亚州立图书馆",
          "lat": -37.8099,
          "lng": 144.9649,
          "rank": 5,
          "tier": "强烈推荐",
          "note": "免费向公众开放，圆顶阅览室是墨尔本最上镜打卡地之一，馆藏超 200 万册，距校园步行 20 分钟"
        },
        {
          "name": "Brownless Biomedical Library (former Building 182 – now ERC annex)",
          "nameCn": "Brownless 生物医学图书馆（现并入 ERC）",
          "lat": -37.7997,
          "lng": 144.9551,
          "rank": 6,
          "tier": "可选",
          "note": "2024 年实体馆关闭，高频医学藏书迁至 Baillieu/ERC，医学生查询资料请直接前往 ERC"
        }
      ]
    },
    {
      "kind": "pointLayer",
      "key": "museum",
      "label": "博物馆 / 展馆",
      "color": "#9333ea",
      "icon": "museum",
      "items": [
        {
          "name": "Potter Museum of Art (Ian Potter Museum)",
          "nameCn": "伊恩·波特艺术博物馆",
          "lat": -37.7983,
          "lng": 144.9618,
          "rank": 1,
          "tier": "必去",
          "note": "澳洲最大高校艺术馆，馆藏逾 18,000 件，2025 年以「65,000年：澳大利亚艺术简史」重新开放，免费入场"
        },
        {
          "name": "Melbourne Museum",
          "nameCn": "墨尔本博物馆",
          "lat": -37.803,
          "lng": 144.9718,
          "rank": 2,
          "tier": "必去",
          "note": "11 Nicholson Street，南半球最大综合性博物馆之一，含恐龙化石、土著文化和生命科学展厅，步行可达"
        },
        {
          "name": "National Gallery of Victoria (NGV International)",
          "nameCn": "维多利亚国立美术馆",
          "lat": -37.8226,
          "lng": 144.9688,
          "rank": 3,
          "tier": "必去",
          "note": "180 St Kilda Road，澳洲历史最悠久、参观人数最多的美术馆，常设展免费，国际特展收费"
        },
        {
          "name": "University of Melbourne Museums & Collections (Cultural Commons)",
          "nameCn": "墨尔本大学文化典藏群",
          "lat": -37.7986,
          "lng": 144.9614,
          "rank": 4,
          "tier": "强烈推荐",
          "note": "校园内 15+ 博物馆与 30+ 专项收藏，含古地图、医学史、动物标本、稀本书等，可预约参观"
        },
        {
          "name": "Chinese Museum",
          "nameCn": "墨尔本华人博物馆",
          "lat": -37.8115,
          "lng": 144.969,
          "rank": 5,
          "tier": "强烈推荐",
          "note": "22 Cohen Place，位于唐人街心脏，专门展示华人淘金史与移民史，中国留学生强烈推荐"
        }
      ]
    },
    {
      "kind": "pointLayer",
      "key": "landmark",
      "label": "地标 / 学生中心",
      "color": "#64748b",
      "icon": "place",
      "items": [
        {
          "name": "Old Quad (Building 155)",
          "nameCn": "旧四合院（Old Quad）",
          "lat": -37.7981,
          "lng": 144.9601,
          "rank": 1,
          "tier": "必去",
          "note": "1854 年始建，澳洲第一栋大学建筑，哥特式回廊是毕业典礼与校园打卡的标志性地点"
        },
        {
          "name": "Royal Exhibition Building",
          "nameCn": "皇家展览馆",
          "lat": -37.8046,
          "lng": 144.9717,
          "rank": 2,
          "tier": "必去",
          "note": "1880 年建成，澳洲首个 UNESCO 世界遗产建筑，坐落于 Carlton Gardens，步行 10 分钟可达"
        },
        {
          "name": "Union House – UMSU (Building 168)",
          "nameCn": "学生会大楼（UMSU）",
          "lat": -37.7979,
          "lng": 144.9608,
          "rank": 3,
          "tier": "必去",
          "note": "学生社团、餐厅、福利服务、活动票务集中地，是新生融入校园生活的第一站"
        },
        {
          "name": "Melbourne Connect (Building 290/291, 700 Swanston St)",
          "nameCn": "墨尔本创新连接中心",
          "lat": -37.7998,
          "lng": 144.9633,
          "rank": 4,
          "tier": "强烈推荐",
          "note": "74,000 ㎡ 创新园区，三栋大楼通过「超级楼层」相连，工程/IT 学生与初创公司混合办公地标"
        },
        {
          "name": "State Library of Victoria",
          "nameCn": "维多利亚州立图书馆",
          "lat": -37.8099,
          "lng": 144.9649,
          "rank": 5,
          "tier": "强烈推荐",
          "note": "标志性八角圆顶阅览室是墨尔本最著名的免费打卡地，也是全城最热闹的自习空间"
        },
        {
          "name": "Lygon Street, Carlton",
          "nameCn": "里根街（小意大利）",
          "lat": -37.8,
          "lng": 144.9675,
          "rank": 6,
          "tier": "推荐",
          "note": "墨尔本「小意大利」，大学生下课后必逛的餐饮文化街，Brunetti 咖啡馆、Readings 书店均在此"
        },
        {
          "name": "1888 Building",
          "nameCn": "1888 大楼",
          "lat": -37.7985,
          "lng": 144.9598,
          "rank": 7,
          "tier": "推荐",
          "note": "校内维多利亚时代砖木混合风格建筑，是校园最具历史感的打卡角落之一"
        }
      ]
    },
    {
      "kind": "pointLayer",
      "key": "supermarket",
      "label": "超市 / 亚超",
      "color": "#ea580c",
      "icon": "shopping_cart",
      "items": [
        {
          "name": "Woolworths Carlton (Lygon Court)",
          "nameCn": "Woolworths 超市（卡尔顿店）",
          "lat": -37.7995,
          "lng": 144.968,
          "rank": 1,
          "tier": "必去",
          "note": "368-380 Lygon Street，步行至校园约 8 分钟，生鲜和日用品齐全，是周边学生最常用的主流超市"
        },
        {
          "name": "Mr Dad Asian Supermarket (Swanston Street)",
          "nameCn": "Mr Dad 亚洲超市（Swanston 店）",
          "lat": -37.8011,
          "lng": 144.9641,
          "rank": 2,
          "tier": "必去",
          "note": "557 Swanston Street，营业至深夜 11 点，汇集日、韩、中、港、台、越南食材逾万种，留学生首选亚超"
        },
        {
          "name": "Coles Carlton (Lygon Street)",
          "nameCn": "Coles 超市（卡尔顿店）",
          "lat": -37.7993,
          "lng": 144.9678,
          "rank": 3,
          "tier": "必去",
          "note": "406 Lygon Street，与 Woolworths 紧邻，价格有时更实惠，周末生鲜特价受学生青睐"
        },
        {
          "name": "Mr Dad Asian Supermarket (Victoria Street)",
          "nameCn": "Mr Dad 亚洲超市（Victoria 街店）",
          "lat": -37.8015,
          "lng": 144.9638,
          "rank": 4,
          "tier": "强烈推荐",
          "note": "168 Victoria Street Carlton，另一家更靠近校区的亚超分店，方便购买东亚食材和零食"
        },
        {
          "name": "ALDI (501 Swanston Street)",
          "nameCn": "ALDI 超市（Swanston 街店）",
          "lat": -37.805,
          "lng": 144.9641,
          "rank": 5,
          "tier": "强烈推荐",
          "note": "501 Swanston Street，折扣超市，牛奶、面包、冷冻食品价格全城最低，预算有限的学生必去"
        },
        {
          "name": "Woolworths Metro (160 Swanston Street)",
          "nameCn": "Woolworths Metro（市区 Swanston 店）",
          "lat": -37.8137,
          "lng": 144.9639,
          "rank": 6,
          "tier": "推荐",
          "note": "160 Swanston Street CBD 便利店型分支，营业时间长，下课路上顺路购物最方便"
        },
        {
          "name": "Queen Victoria Market",
          "nameCn": "维多利亚女王市场",
          "lat": -37.8076,
          "lng": 144.9566,
          "rank": 7,
          "tier": "推荐",
          "note": "南半球最大露天市场，每周二至周日开放，新鲜蔬果和肉类价格仅为超市的六七折，周末必逛"
        }
      ]
    },
    {
      "kind": "pointLayer",
      "key": "dining",
      "label": "必吃 / 餐饮",
      "color": "#dc2626",
      "icon": "restaurant",
      "items": [
        {
          "name": "Brunetti Classico Carlton",
          "nameCn": "布鲁内蒂经典意式咖啡馆",
          "lat": -37.7979,
          "lng": 144.9674,
          "rank": 1,
          "tier": "绝对必吃",
          "note": "380 Lygon Street，1985 年开业，墨尔本最著名意式甜品与咖啡地标，提拉米苏和 cannoli 必点"
        },
        {
          "name": "Tiamo Restaurant",
          "nameCn": "Tiamo 意大利餐厅",
          "lat": -37.7995,
          "lng": 144.9676,
          "rank": 2,
          "tier": "绝对必吃",
          "note": "303 Lygon Street，1978 年开业，平价正宗意面与千层面，几十年来学生心中的 Lygon 街灵魂"
        },
        {
          "name": "Hi Chong Qing (Hi CQ)",
          "nameCn": "Hi 重庆面馆",
          "lat": -37.8012,
          "lng": 144.9663,
          "rank": 3,
          "tier": "绝对必吃",
          "note": "26 Orr Street Carlton，手工小麦面+猪脚花椒汤底，多年登上 TimeOut 最佳廉价餐厅榜，中国学生聚集地"
        },
        {
          "name": "Panda Hot Pot Carlton",
          "nameCn": "熊猫火锅（卡尔顿）",
          "lat": -37.8008,
          "lng": 144.9671,
          "rank": 4,
          "tier": "绝对必吃",
          "note": "100 Victoria Street，四川麻辣锅底配 80+ 涮料，金龙镇店，堂食氛围热烈，中国留学生聚餐首选"
        },
        {
          "name": "Lagoon Dining",
          "nameCn": "Lagoon 泛亚料理",
          "lat": -37.799,
          "lng": 144.9667,
          "rank": 5,
          "tier": "绝对必吃",
          "note": "263 Lygon Street，5 星口碑的泛亚创意料理，TimeOut 给出五星好评，性价比极高的正式餐厅"
        },
        {
          "name": "Bowltiful Lanzhou Beef Noodle (Swanston Street)",
          "nameCn": "壹碗中国兰州牛肉面（Swanston 店）",
          "lat": -37.809,
          "lng": 144.9641,
          "rank": 6,
          "tier": "绝对必吃",
          "note": "249 Swanston Street，手拉面配清澈牛骨汤，$14.80 起，清真认证，深受穆斯林和中国学生追捧"
        },
        {
          "name": "East Imperial Carlton",
          "nameCn": "东皇宫（卡尔顿）",
          "lat": -37.7967,
          "lng": 144.9668,
          "rank": 7,
          "tier": "很推荐",
          "note": "323 Rathdowne Street，以等比例兵马俑为装饰的正宗粤式点心馆，推车叉烧包与小笼包口碑极佳"
        },
        {
          "name": "D.O.C Pizza & Mozzarella Bar Carlton",
          "nameCn": "D.O.C 披萨芝士吧",
          "lat": -37.7983,
          "lng": 144.9672,
          "rank": 8,
          "tier": "很推荐",
          "note": "326 Lygon Street，2024 年翻新后的 Lygon 街招牌意式薄底披萨，芝士拼盘和自制意面同样出色"
        },
        {
          "name": "Flower Drum",
          "nameCn": "花鼓（高端粤菜）",
          "lat": -37.8112,
          "lng": 144.9693,
          "rank": 9,
          "tier": "很推荐",
          "note": "17 Market Lane，唐人街顶级粤菜，连续多年摘得 Good Food Guide 双帽，值得生日庆典或家长到访时一去"
        },
        {
          "name": "Lune Croissanterie Fitzroy",
          "nameCn": "Lune 可颂工坊（Fitzroy）",
          "lat": -37.796,
          "lng": 144.9799,
          "rank": 10,
          "tier": "很推荐",
          "note": "119 Rose Street Fitzroy，全澳最著名的法式可颂专门店，开店前已大排长龙，cruffin 每日限量"
        },
        {
          "name": "Dolan Uyghur Restaurant Carlton",
          "nameCn": "多兰维吾尔餐厅",
          "lat": -37.801,
          "lng": 144.966,
          "rank": 11,
          "tier": "很推荐",
          "note": "Carlton 的新疆清真餐厅，大盘鸡、手抓饭、羊肉串口味地道，中国西北学生特别推荐"
        },
        {
          "name": "Tipo 00",
          "nameCn": "Tipo 00 意面馆",
          "lat": -37.813,
          "lng": 144.9597,
          "rank": 12,
          "tier": "很推荐",
          "note": "361 Little Bourke Street CBD，被誉为墨尔本最佳意面，Tripadvisor 全城前 25，价格偏高但值得"
        },
        {
          "name": "Chinatown – Little Bourke Street precinct",
          "nameCn": "唐人街（Little Bourke Street 餐饮区）",
          "lat": -37.8114,
          "lng": 144.9683,
          "rank": 13,
          "tier": "一般",
          "note": "全球持续时间最久的华人聚居区，集中大量粤菜、湘菜、越南河粉、日韩料理，人均 $15-30"
        }
      ]
    },
    {
      "kind": "pointLayer",
      "key": "services",
      "label": "生活服务",
      "color": "#0e7490",
      "icon": "account_balance",
      "items": [
        {
          "name": "Commonwealth Bank Carlton Branch",
          "nameCn": "澳洲联邦银行卡尔顿支行",
          "lat": -37.7991,
          "lng": 144.9674,
          "rank": 1,
          "tier": "必去",
          "note": "272 Lygon Street，距校区最近的主流银行网点，接受大学录取通知书开户，有中文服务人员"
        },
        {
          "name": "University of Melbourne Health Service (Building 385)",
          "nameCn": "墨尔本大学校医中心",
          "lat": -37.7988,
          "lng": 144.9617,
          "rank": 2,
          "tier": "必去",
          "note": "校内 GPS 诊所，周一至五 8:45-17:00，仅面向在校学生和员工，可开具心理健康护理计划（MHCP）"
        },
        {
          "name": "Royal Melbourne Hospital Emergency Department",
          "nameCn": "皇家墨尔本医院急诊室",
          "lat": -37.7993,
          "lng": 144.9556,
          "rank": 3,
          "tier": "必去",
          "note": "300 Grattan Street Parkville，24 小时急诊与创伤中心，紧邻校园，是步行最近的公立三甲医院"
        },
        {
          "name": "HealthSmart Pharmacy University",
          "nameCn": "HealthSmart 校区药房",
          "lat": -37.7993,
          "lng": 144.9635,
          "rank": 4,
          "tier": "强烈推荐",
          "note": "校内 Swanston Street 附近，常规药品与处方药均有，开学季特别拥挤，建议提前配药"
        },
        {
          "name": "Telstra Store Carlton",
          "nameCn": "Telstra 卡尔顿营业厅",
          "lat": -37.798,
          "lng": 144.9675,
          "rank": 5,
          "tier": "强烈推荐",
          "note": "223 Lygon Street，最近的 Telstra 官方门店，澳洲信号最佳的运营商，留学生激活 SIM 首选"
        },
        {
          "name": "Optus Store (253 Elizabeth Street CBD)",
          "nameCn": "Optus 营业厅（Elizabeth 街）",
          "lat": -37.8106,
          "lng": 144.959,
          "rank": 6,
          "tier": "强烈推荐",
          "note": "253 Elizabeth Street，Optus 是第二大运营商，学生套餐性价比高，40GB 含国际通话约 $40/月"
        },
        {
          "name": "Bank of China Melbourne Branch",
          "nameCn": "中国银行墨尔本分行",
          "lat": -37.8124,
          "lng": 144.9683,
          "rank": 7,
          "tier": "推荐",
          "note": "140 William Street CBD，中国留学生专属海外学生账户，可凭在读证明开户，人民币汇款手续费低"
        },
        {
          "name": "Royal Dental Hospital of Melbourne",
          "nameCn": "皇家牙科医院",
          "lat": -37.8013,
          "lng": 144.9636,
          "rank": 8,
          "tier": "推荐",
          "note": "720 Swanston Street，大学牙学院附属公立诊所，学生诊疗价格仅为私立的三分之一，需提前预约"
        }
      ]
    },
    {
      "kind": "pointLayer",
      "key": "attractions",
      "label": "周边 / 打卡",
      "color": "#db2777",
      "icon": "photo_camera",
      "items": [
        {
          "name": "Melbourne Zoo / Royal Park",
          "nameCn": "墨尔本动物园 / 皇家公园",
          "lat": -37.7848,
          "lng": 144.9521,
          "rank": 1,
          "tier": "必去",
          "note": "Elliott Avenue Parkville，距校区骑车 10 分钟，学生票约 $29，大熊猫馆和野外海洋展馆人气最高"
        },
        {
          "name": "Royal Exhibition Building & Carlton Gardens",
          "nameCn": "皇家展览馆暨卡尔顿花园",
          "lat": -37.8046,
          "lng": 144.9717,
          "rank": 2,
          "tier": "必去",
          "note": "UNESCO 世界遗产，外观恢宏壮丽，花园内草坪是学生野餐和打卡圣地，免费入场"
        },
        {
          "name": "Federation Square",
          "nameCn": "联邦广场",
          "lat": -37.8178,
          "lng": 144.9687,
          "rank": 3,
          "tier": "必去",
          "note": "电车 1 号直达，城市最重要的文化广场，NGV 澳洲馆免费，各类节庆活动和集市均在此举行"
        },
        {
          "name": "Queen Victoria Market",
          "nameCn": "维多利亚女王市场",
          "lat": -37.8076,
          "lng": 144.9566,
          "rank": 4,
          "tier": "必去",
          "note": "南半球最大露天市场，周二至周日开放，新鲜食材和街头美食价廉物美，留学生必逛"
        },
        {
          "name": "Royal Botanic Gardens Melbourne",
          "nameCn": "墨尔本皇家植物园",
          "lat": -37.8334,
          "lng": 144.9803,
          "rank": 5,
          "tier": "必去",
          "note": "Birdwood Avenue South Yarra，免费入场，40 公顷绿地含 150 万株植物，是考试季减压首选户外场所"
        },
        {
          "name": "St Kilda Beach",
          "nameCn": "圣基尔达海滩",
          "lat": -37.8672,
          "lng": 144.9766,
          "rank": 6,
          "tier": "强烈推荐",
          "note": "电车 1 号南行约 30 分钟可达，周末必去海滨，Luna Park 游乐园、Acland Street 甜品店连成精彩一日游"
        },
        {
          "name": "Melbourne Skydeck (Eureka Tower 88F)",
          "nameCn": "墨尔本天空甲板（Eureka Tower 88层）",
          "lat": -37.8213,
          "lng": 144.9646,
          "rank": 7,
          "tier": "强烈推荐",
          "note": "7 Riverside Quay Southbank，南半球最高观景台，360° 俯瞰墨尔本全貌，朋友来访必带"
        },
        {
          "name": "Fitzroy Gardens & Cook's Cottage",
          "nameCn": "菲茨罗伊花园暨库克船长小屋",
          "lat": -37.8126,
          "lng": 144.9804,
          "rank": 8,
          "tier": "强烈推荐",
          "note": "东墨尔本 19 世纪历史公园，库克船长父母故居原屋移植至此，榆树大道是摄影打卡热点"
        },
        {
          "name": "Chinatown Melbourne (Little Bourke Street)",
          "nameCn": "墨尔本唐人街",
          "lat": -37.8114,
          "lng": 144.9683,
          "rank": 9,
          "tier": "推荐",
          "note": "西方世界历史最悠久的华人聚居区，农历新年游行全城最盛大，中国学生的文化精神家园"
        },
        {
          "name": "Lune Croissanterie & Fitzroy precinct",
          "nameCn": "菲茨罗伊街区（Lune 可颂工坊）",
          "lat": -37.796,
          "lng": 144.9799,
          "rank": 10,
          "tier": "推荐",
          "note": "119 Rose Street Fitzroy，全澳最火爆的法式甜品店毗邻独立咖啡馆与街头艺术，骑车 15 分钟可达"
        },
        {
          "name": "Degraves Street Melbourne",
          "nameCn": "德格雷夫斯巷（咖啡文化小巷）",
          "lat": -37.8173,
          "lng": 144.9656,
          "rank": 11,
          "tier": "推荐",
          "note": "CBD 最具代表性的咖啡文化巷弄，密集的特色咖啡馆体现墨尔本精品咖啡文化，电车即达"
        },
        {
          "name": "Readings Bookshop Carlton",
          "nameCn": "Readings 书店（卡尔顿旗舰店）",
          "lat": -37.798,
          "lng": 144.9673,
          "rank": 12,
          "tier": "可选",
          "note": "309 Lygon Street，2016 年荣获伦敦书展「年度最佳书店」，英文学术书和文学类图书精选推荐齐全"
        }
      ]
    }
  ]
}
