{
  "id": "sydney",
  "type": "school",
  "name": "University of Sydney",
  "nameCn": "悉尼大学",
  "city": "Sydney",
  "center": [
    -33.8884,
    151.1875
  ],
  "zoom": 13,
  "blurb": "悉尼大学是澳大利亚最古老的大学，主校区坐落于内城坎珀当与达灵顿，以维多利亚式砂岩四方院和绿地草坪为标志，并向 CBD、医学研究区及远郊农牧场延伸成多点格局。",
  "features": [
    {
      "kind": "zone",
      "label": "校区 / 区域",
      "color": "#16a34a",
      "defaultOn": true,
      "items": [
        {
          "name": "Camperdown/Darlington Campus",
          "nameCn": "坎珀当/达灵顿主校区",
          "lat": -33.8884,
          "lng": 151.1875,
          "radius": 900,
          "note": "主校区，砂岩四方院与多数学院所在地，横跨城路两侧。"
        },
        {
          "name": "Mallett Street Campus (Brain and Mind Centre)",
          "nameCn": "马利特街校区（脑与心智中心）",
          "lat": -33.8888,
          "lng": 151.178,
          "radius": 300,
          "note": "距主校区数步之遥，脑与心智中心及临床试验设施。"
        },
        {
          "name": "Surry Hills Campus (Sydney Dental Hospital)",
          "nameCn": "萨里山校区（悉尼牙科医院）",
          "lat": -33.8835,
          "lng": 151.2068,
          "radius": 250,
          "note": "中央车站对面，牙学院与牙科医院临床基地。"
        },
        {
          "name": "Sydney Conservatorium of Music",
          "nameCn": "悉尼音乐学院",
          "lat": -33.86348,
          "lng": 151.21435,
          "radius": 250,
          "note": "CBD 皇家植物园旁，格林威砂岩历史建筑内。"
        },
        {
          "name": "Sydney CBD Campus (133 Castlereagh St)",
          "nameCn": "CBD 城区校区",
          "lat": -33.8718,
          "lng": 151.2086,
          "radius": 220,
          "note": "商学院与法学院部分课程在卡苏里街开设。"
        },
        {
          "name": "Westmead Campus",
          "nameCn": "韦斯特米德校区",
          "lat": -33.8045,
          "lng": 150.9886,
          "radius": 700,
          "note": "西郊大型健康与科研区，紧邻韦斯特米德医院。"
        },
        {
          "name": "Camden Campus",
          "nameCn": "卡姆登校区",
          "lat": -34.0353,
          "lng": 150.6559,
          "radius": 1200,
          "note": "西南远郊农牧科研区，兽医教学医院与试验农场。"
        }
      ]
    },
    {
      "kind": "pointLayer",
      "key": "department",
      "label": "院系 / 教学楼",
      "color": "#2563eb",
      "icon": "school",
      "items": [
        {
          "name": "Quadrangle (Faculty of Arts)",
          "nameCn": "四方院（文学院）",
          "lat": -33.8884,
          "lng": 151.1875,
          "note": "标志性砂岩四方院，文学院办公与历史核心。"
        },
        {
          "name": "Anderson Stuart Building",
          "nameCn": "安德森·斯图尔特楼",
          "lat": -33.8872,
          "lng": 151.1895,
          "note": "悉尼医学院最早的砂岩教学楼。"
        },
        {
          "name": "Charles Perkins Centre",
          "nameCn": "查尔斯·珀金斯中心",
          "lat": -33.8875,
          "lng": 151.1835,
          "note": "慢性病多学科研究旗舰，毗邻皇家阿尔弗雷德医院。"
        },
        {
          "name": "Susan Wakil Health Building",
          "nameCn": "苏珊·瓦基尔健康楼",
          "lat": -33.8901,
          "lng": 151.1851,
          "note": "护理与健康学科教学楼，西大道健康区内。"
        },
        {
          "name": "School of Civil Engineering (PNR Building)",
          "nameCn": "工程学院（PNR 楼）",
          "lat": -33.8901,
          "lng": 151.1931,
          "note": "工程与计算机学科集中于校区东侧达灵顿一带。"
        },
        {
          "name": "Sydney Nanoscience Hub",
          "nameCn": "悉尼纳米科学中心",
          "lat": -33.8884,
          "lng": 151.1874,
          "note": "物理与纳米科技研究，配高端洁净室设施。"
        }
      ],
      "defaultOn": true
    },
    {
      "kind": "pointLayer",
      "key": "library",
      "label": "图书馆",
      "color": "#0891b2",
      "icon": "local_library",
      "items": [
        {
          "name": "Fisher Library",
          "nameCn": "费舍尔图书馆",
          "lat": -33.8863,
          "lng": 151.1904,
          "note": "全校最大图书馆，东大道旁九层主馆。"
        },
        {
          "name": "Law Library (New Law Building)",
          "nameCn": "法学图书馆（新法学楼）",
          "lat": -33.8873,
          "lng": 151.1908,
          "note": "法学院新楼内，邻东大道。"
        }
      ]
    },
    {
      "kind": "pointLayer",
      "key": "museum",
      "label": "博物馆 / 展馆",
      "color": "#9333ea",
      "icon": "museum",
      "items": [
        {
          "name": "Chau Chak Wing Museum",
          "nameCn": "周泽荣博物馆",
          "lat": -33.8853,
          "lng": 151.1905,
          "note": "合并尼科尔森等三馆，藏古物与艺术，临大学广场。"
        }
      ]
    },
    {
      "kind": "pointLayer",
      "key": "landmark",
      "label": "地标 / 学生中心",
      "color": "#64748b",
      "icon": "place",
      "items": [
        {
          "name": "The Great Hall",
          "nameCn": "大礼堂",
          "lat": -33.8881,
          "lng": 151.1869,
          "note": "四方院内哥特复兴式礼堂，毕业典礼场所。"
        },
        {
          "name": "Holme Building (Students' Union)",
          "nameCn": "霍姆楼（学生会）",
          "lat": -33.8852,
          "lng": 151.1867,
          "note": "学生组织活动与社团中心。"
        },
        {
          "name": "Redfern Station",
          "nameCn": "雷德芬车站",
          "lat": -33.8917,
          "lng": 151.1985,
          "note": "校区东南最近火车站，通勤主要门户。"
        }
      ]
    },
    {
      "kind": "pointLayer",
      "key": "supermarket",
      "label": "超市 / 亚超",
      "color": "#ea580c",
      "icon": "shopping_cart",
      "items": [
        {
          "name": "Coles Broadway (Broadway Sydney)",
          "nameCn": "Coles 超市（Broadway 购物中心）",
          "lat": -33.8836,
          "lng": 151.1939,
          "note": "紧邻校园北侧 Broadway 购物中心内的主流大超市，日常采购最方便，同楼还有 Aldi、药房、美食广场。"
        },
        {
          "name": "Woolworths Town Hall / Broadway area",
          "nameCn": "Woolworths 超市",
          "lat": -33.8838,
          "lng": 151.1955,
          "note": "Broadway 一带的另一家主流连锁超市，新鲜蔬果和日用品齐全，是 Coles 之外的常用备选。"
        },
        {
          "name": "Miracle Supermarket Newtown",
          "nameCn": "Miracle 亚洲超市（Newtown 店）",
          "lat": -33.8965,
          "lng": 151.18,
          "note": "King Street 上的亚超，中式日式调料、米面、火锅料、零食齐全，步行可达买中餐食材首选。"
        },
        {
          "name": "Tang's Supermarket / Asian grocer (Ultimo–Chinatown)",
          "nameCn": "中式亚洲超市（Ultimo 方向）",
          "lat": -33.881,
          "lng": 151.199,
          "note": "靠 Ultimo / 唐人街方向的华人超市，老干妈、酱油、冷冻品和中国零食一站买齐，价格实惠。"
        }
      ]
    },
    {
      "kind": "pointLayer",
      "key": "dining",
      "label": "必吃 / 餐饮",
      "color": "#dc2626",
      "icon": "restaurant",
      "items": [
        {
          "name": "Mary's Newtown",
          "nameCn": "Mary's 汉堡（Newtown）",
          "lat": -33.8975,
          "lng": 151.1796,
          "note": "Newtown 地标级美式汉堡与炸鸡店，本地必吃网红，氛围 chill，适合朋友聚餐。"
        },
        {
          "name": "Rising Sun Workshop",
          "nameCn": "Rising Sun 拉面工坊",
          "lat": -33.8959,
          "lng": 151.1817,
          "note": "藏在 King Street 旁、拉面+咖啡+摩托车工坊三合一的特色日式拉面店，本地人气很高。"
        },
        {
          "name": "Spice I Am / Thai on King Street",
          "nameCn": "泰式餐厅（King Street）",
          "lat": -33.899,
          "lng": 151.1788,
          "note": "Newtown King Street 泰餐云集，正宗辣味、价格友好，是学生党高性价比的亚洲菜选择。"
        },
        {
          "name": "Chinese restaurants on King Street, Newtown",
          "nameCn": "King Street 中餐馆",
          "lat": -33.897,
          "lng": 151.1795,
          "note": "King Street 沿街多家中餐与川菜、火锅、奶茶店，想吃地道中餐解馋走几步就到。"
        },
        {
          "name": "Spice Alley (Kensington Street, Chippendale)",
          "nameCn": "Spice Alley 亚洲美食巷（Chippendale）",
          "lat": -33.8855,
          "lng": 151.1995,
          "note": "校园东侧 Chippendale 网红亚洲街头美食巷，星马泰越各国小吃集中，环境出片又便宜。"
        },
        {
          "name": "Newtown cafés & brunch",
          "nameCn": "Newtown 咖啡与早午餐",
          "lat": -33.898,
          "lng": 151.179,
          "note": "Newtown 是悉尼咖啡文化重镇，brunch 和精品咖啡店密集，体验本地生活方式的好去处。"
        }
      ]
    },
    {
      "kind": "pointLayer",
      "key": "services",
      "label": "生活服务",
      "color": "#0e7490",
      "icon": "account_balance",
      "items": [
        {
          "name": "Royal Prince Alfred Hospital (RPA)",
          "nameCn": "皇家阿尔弗雷德王子医院（RPA）",
          "lat": -33.8892,
          "lng": 151.1829,
          "note": "紧邻校园西侧的大型公立教学医院，设急诊（Emergency），突发就医或急诊第一选择。"
        },
        {
          "name": "University of Sydney Health Service (GP)",
          "nameCn": "悉尼大学校医务室（GP 全科）",
          "lat": -33.8884,
          "lng": 151.19,
          "note": "校内学生全科诊所，看小病、开处方、做体检和疫苗都在这里，凭学生身份预约即可。"
        },
        {
          "name": "Commonwealth Bank — Broadway",
          "nameCn": "联邦银行 CommBank（Broadway 支行）",
          "lat": -33.8837,
          "lng": 151.1942,
          "note": "Broadway 购物中心一带的主流银行网点，开学生账户、办卡、现金业务方便，留学生常用。"
        },
        {
          "name": "Telco / pharmacy at Broadway Sydney",
          "nameCn": "电信营业厅与药房（Broadway 中心）",
          "lat": -33.8835,
          "lng": 151.194,
          "note": "Broadway 中心内有 Optus/Telstra/Vodafone 手机营业厅和 Chemist Warehouse 药房，办电话卡、买药一站搞定。"
        }
      ]
    },
    {
      "kind": "pointLayer",
      "key": "attractions",
      "label": "周边 / 打卡",
      "color": "#db2777",
      "icon": "photo_camera",
      "items": [
        {
          "name": "University of Sydney Quadrangle & Great Hall",
          "nameCn": "悉尼大学方庭与大礼堂",
          "lat": -33.8866,
          "lng": 151.1873,
          "note": "校内标志性砂岩哥特建筑，被称\"霍格沃茨\"，是全校最热门的拍照打卡点。"
        },
        {
          "name": "Victoria Park & Pool",
          "nameCn": "维多利亚公园与泳池",
          "lat": -33.8855,
          "lng": 151.1965,
          "note": "紧邻校园东南的大公园，有 50 米露天恒温泳池，散步、跑步、晒太阳的日常去处。"
        },
        {
          "name": "Newtown King Street (street art & live music)",
          "nameCn": "Newtown 国王街（涂鸦与文艺街区）",
          "lat": -33.898,
          "lng": 151.179,
          "note": "悉尼最有个性的文艺街区，涂鸦墙、二手店、酒吧和 livehouse 林立，年轻人最爱逛。"
        },
        {
          "name": "Chinatown & Darling Harbour",
          "nameCn": "唐人街与达令港",
          "lat": -33.879,
          "lng": 151.203,
          "note": "校园东北步行/轻轨可达的唐人街与达令港滨水区，想家时吃中餐、逛夜市、看海港夜景。"
        },
        {
          "name": "Carriageworks (Eveleigh)",
          "nameCn": "Carriageworks 艺术中心（Eveleigh）",
          "lat": -33.897,
          "lng": 151.186,
          "note": "由旧火车车厂改造的当代艺术与文化空间，常办周末农夫市集和展览，文艺活动丰富。"
        }
      ]
    }
  ]
}
