{
  "id": "ucsd",
  "type": "school",
  "name": "University of California, San Diego",
  "nameCn": "加州大学圣迭戈分校",
  "city": "San Diego, CA",
  "center": [
    32.8801,
    -117.234
  ],
  "zoom": 13,
  "blurb": "加州大学圣迭戈分校坐落于拉霍亚太平洋海崖之上，以吉塞尔图书馆为中心、八大住宿学院环绕，融研究型校园、海洋科学与生物医药园区于一体。",
  "features": [
    {
      "kind": "zone",
      "label": "校区 / 区域",
      "color": "#16a34a",
      "defaultOn": true,
      "items": [
        {
          "name": "Main Campus (La Jolla)",
          "nameCn": "拉霍亚主校区",
          "lat": 32.8801,
          "lng": -117.234,
          "radius": 1500,
          "note": "1152英亩主校区，八大住宿学院环绕吉塞尔图书馆。"
        },
        {
          "name": "Scripps Institution of Oceanography",
          "nameCn": "斯克里普斯海洋研究所",
          "lat": 32.867,
          "lng": -117.253,
          "radius": 700,
          "note": "滨海海洋科学校区，含科考码头与伯奇水族馆。"
        },
        {
          "name": "East Campus Medical Center (Jacobs/Moores)",
          "nameCn": "东校区医学中心",
          "lat": 32.881,
          "lng": -117.2215,
          "radius": 650,
          "note": "I-5以东，雅各布斯医院与摩尔斯癌症中心所在。"
        },
        {
          "name": "Hillcrest Medical Center",
          "nameCn": "希尔克雷斯特医学中心",
          "lat": 32.7565,
          "lng": -117.1665,
          "radius": 450,
          "note": "市区急救与教学医院，距主校区约14公里。"
        },
        {
          "name": "Park & Market (Downtown)",
          "nameCn": "市中心Park & Market中心",
          "lat": 32.7138,
          "lng": -117.1565,
          "radius": 300,
          "note": "东村市中心延伸教育与文化枢纽。"
        }
      ]
    },
    {
      "kind": "pointLayer",
      "key": "department",
      "label": "院系 / 教学楼",
      "color": "#2563eb",
      "icon": "school",
      "items": [
        {
          "name": "Jacobs School of Engineering",
          "nameCn": "雅各布斯工程学院",
          "lat": 32.8817,
          "lng": -117.2342,
          "note": "主校区北侧工程学院群，工学顶尖。"
        },
        {
          "name": "Revelle College",
          "nameCn": "瑞威尔学院",
          "lat": 32.8745,
          "lng": -117.241,
          "note": "最早设立的住宿学院，居校区西南。"
        },
        {
          "name": "Muir College",
          "nameCn": "缪尔学院",
          "lat": 32.879,
          "lng": -117.2415,
          "note": "西侧Ridge Walk沿线住宿学院。"
        },
        {
          "name": "Warren College",
          "nameCn": "沃伦学院",
          "lat": 32.8825,
          "lng": -117.233,
          "note": "图书馆东北，邻近工程与理学楼。"
        },
        {
          "name": "School of Global Policy and Strategy",
          "nameCn": "全球政策与战略学院",
          "lat": 32.8855,
          "lng": -117.2415,
          "note": "校区西北的国际政策研究院。"
        },
        {
          "name": "Moores Cancer Center",
          "nameCn": "摩尔斯癌症中心",
          "lat": 32.8825,
          "lng": -117.2228,
          "note": "东校区NCI认证综合癌症中心。"
        }
      ],
      "defaultOn": true
    },
    {
      "kind": "pointLayer",
      "key": "library",
      "label": "图书馆",
      "color": "#0891b2",
      "icon": "local_library",
      "items": [
        {
          "name": "Geisel Library",
          "nameCn": "吉塞尔图书馆",
          "lat": 32.8812,
          "lng": -117.2377,
          "note": "悬臂玻璃地标，校区视觉与地理中心。"
        },
        {
          "name": "Biomedical Library",
          "nameCn": "生物医学图书馆",
          "lat": 32.8772,
          "lng": -117.236,
          "note": "服务理学与医学院的专科馆。"
        }
      ]
    },
    {
      "kind": "pointLayer",
      "key": "museum",
      "label": "博物馆 / 展馆",
      "color": "#9333ea",
      "icon": "museum",
      "items": [
        {
          "name": "Birch Aquarium at Scripps",
          "nameCn": "斯克里普斯伯奇水族馆",
          "lat": 32.8658,
          "lng": -117.2506,
          "note": "海洋研究所公共水族馆，俯瞰太平洋。"
        },
        {
          "name": "Stuart Collection (outdoor art)",
          "nameCn": "斯图尔特户外艺术收藏",
          "lat": 32.88,
          "lng": -117.236,
          "note": "散布校园的site-specific公共艺术装置。"
        }
      ]
    },
    {
      "kind": "pointLayer",
      "key": "landmark",
      "label": "地标 / 学生中心",
      "color": "#64748b",
      "icon": "place",
      "items": [
        {
          "name": "Price Center",
          "nameCn": "普莱斯中心",
          "lat": 32.8796,
          "lng": -117.236,
          "note": "学生活动中心，餐饮书店枢纽。"
        },
        {
          "name": "RIMAC Arena",
          "nameCn": "RIMAC体育馆",
          "lat": 32.8873,
          "lng": -117.2396,
          "note": "北校区主体育与赛事场馆。"
        },
        {
          "name": "Sun God statue",
          "nameCn": "太阳神雕塑",
          "lat": 32.8775,
          "lng": -117.2375,
          "note": "校园标志性图腾雕塑与节庆地标。"
        }
      ]
    },
    {
      "kind": "pointLayer",
      "key": "supermarket",
      "label": "超市 / 亚超",
      "color": "#ea580c",
      "icon": "shopping_cart",
      "items": [
        {
          "name": "Trader Joe's (La Jolla Village Square)",
          "nameCn": "缺德舅超市（La Jolla Village Square 店）",
          "lat": 32.8703,
          "lng": -117.2275,
          "note": "离校最近的主流超市，平价半成品和零食，UCSD 学生日常采购首选，步行/校巴可达。"
        },
        {
          "name": "Whole Foods Market La Jolla",
          "nameCn": "全食超市 La Jolla 店",
          "lat": 32.8718,
          "lng": -117.227,
          "note": "与缺德舅同一片商业区，有机食品和现成熟食，价格偏高但品质好。"
        },
        {
          "name": "99 Ranch Market (Clairemont Mesa)",
          "nameCn": "大华超市（Clairemont Mesa 店）",
          "lat": 32.8235,
          "lng": -117.1632,
          "note": "离校最近的大型华人超市，中式调料、活鲜、亚洲蔬果齐全，需开车约15分钟，内含三和粥粉面和奶茶店。"
        },
        {
          "name": "Nijiya Market (Convoy St)",
          "nameCn": "二木日本超市（Convoy 街店）",
          "lat": 32.8163,
          "lng": -117.156,
          "note": "Convoy 亚洲美食区的日系超市，日韩食材、便当和刺身，与大华同一带可一起逛。"
        }
      ]
    },
    {
      "kind": "pointLayer",
      "key": "dining",
      "label": "必吃 / 餐饮",
      "color": "#dc2626",
      "icon": "restaurant",
      "items": [
        {
          "name": "Din Tai Fung (Westfield UTC)",
          "nameCn": "鼎泰丰（UTC 商场店）",
          "lat": 32.8716,
          "lng": -117.211,
          "note": "UTC 商场内的台式名店，小笼包招牌，离校开车几分钟，请客和想家时的稳妥之选。"
        },
        {
          "name": "Haidilao Hotpot San Diego (UTC)",
          "nameCn": "海底捞火锅（UTC 店）",
          "lat": 32.871,
          "lng": -117.2103,
          "note": "UTC 商场内的海底捞，正宗川式火锅和贴心服务，适合朋友聚餐解馋。"
        },
        {
          "name": "Tasty Noodle House (Convoy)",
          "nameCn": "美味小厨（Convoy 街店）",
          "lat": 32.819,
          "lng": -117.156,
          "note": "Convoy 亚洲美食区的人气江浙沪小馆，小笼、生煎和家常菜，分量足价格实在。"
        },
        {
          "name": "Shan Xi Magic Kitchen (Convoy)",
          "nameCn": "西安魔法厨房（Convoy 街店）",
          "lat": 32.8193,
          "lng": -117.156,
          "note": "主打陕西手工面和肉夹馍的北方菜馆，想吃面食时值得专程一去。"
        },
        {
          "name": "George's at the Cove",
          "nameCn": "George's 海景餐厅（La Jolla Cove）",
          "lat": 32.85,
          "lng": -117.2722,
          "note": "La Jolla Cove 旁的招牌海景餐厅，加州海鲜，本地必打卡的高人气地标。"
        }
      ]
    },
    {
      "kind": "pointLayer",
      "key": "services",
      "label": "生活服务",
      "color": "#0e7490",
      "icon": "account_balance",
      "items": [
        {
          "name": "Bank of America (La Jolla Village Square)",
          "nameCn": "美国银行（La Jolla Village Square 支行）",
          "lat": 32.8707,
          "lng": -117.2278,
          "note": "离校最近的大行网点，可现场预约开户办借记卡，带护照和 I-20 即可办理。"
        },
        {
          "name": "UC San Diego Health Urgent Care – Villa La Jolla",
          "nameCn": "UCSD 健康急诊护理中心（Villa La Jolla）",
          "lat": 32.8709,
          "lng": -117.2305,
          "note": "校属急诊护理点，发烧外伤等非急症免预约就诊，学生保险通常可直付。"
        },
        {
          "name": "CVS Pharmacy / MinuteClinic (Villa La Jolla Dr)",
          "nameCn": "CVS 药房 / MinuteClinic（Villa La Jolla 路）",
          "lat": 32.8714,
          "lng": -117.23,
          "note": "连锁药房可取处方药和买非处方药，附设 MinuteClinic 能打疫苗做小病问诊。"
        },
        {
          "name": "T-Mobile (UTC Mall)",
          "nameCn": "T-Mobile 营业厅（UTC 商场店）",
          "lat": 32.8709,
          "lng": -117.2105,
          "note": "运营商门店，落地后办美国手机卡套餐，店员可协助开通和转网。"
        }
      ]
    },
    {
      "kind": "pointLayer",
      "key": "attractions",
      "label": "周边 / 打卡",
      "color": "#db2777",
      "icon": "photo_camera",
      "items": [
        {
          "name": "Birch Aquarium at Scripps",
          "nameCn": "斯克里普斯伯奇水族馆",
          "lat": 32.8658,
          "lng": -117.2506,
          "note": "UCSD 斯克里普斯海洋研究所旗下水族馆，能看小蓝企鹅和海龙，俯瞰太平洋景观绝佳。"
        },
        {
          "name": "La Jolla Cove",
          "nameCn": "拉霍亚海湾",
          "lat": 32.8506,
          "lng": -117.2722,
          "note": "圣迭戈最经典的海湾，礁石上常有海狮海豹，浮潜和看日落的头号打卡点。"
        },
        {
          "name": "La Jolla Shores Beach",
          "nameCn": "拉霍亚海滩",
          "lat": 32.8569,
          "lng": -117.2566,
          "note": "离校最近的沙滩，平缓海浪适合新手冲浪和皮划艇，周末散步晒太阳好去处。"
        },
        {
          "name": "Sunny Jim Sea Cave",
          "nameCn": "阳光吉姆海蚀洞",
          "lat": 32.85,
          "lng": -117.2708,
          "note": "拉霍亚唯一可从陆上进入的海蚀洞，下145级台阶穿过百年人工隧道，独特探险体验。"
        },
        {
          "name": "Geisel Library (UCSD)",
          "nameCn": "盖泽尔图书馆（UCSD 地标）",
          "lat": 32.8811,
          "lng": -117.2376,
          "note": "校园中央的飞碟形未来主义建筑，UCSD 最出名的地标，新生必拍的标志性背景。"
        }
      ]
    }
  ]
}
