{
  "id": "university-of-virginia",
  "type": "school",
  "name": "University of Virginia",
  "nameCn": "弗吉尼亚大学",
  "city": "Charlottesville, VA",
  "center": [
    38.0356,
    -78.5033
  ],
  "zoom": 14,
  "blurb": "杰斐逊亲手设计的\"学术村\"以圆顶大厅与草坪为核心，红砖白柱的联邦古典建筑群被列为世界文化遗产，散落于夏洛茨维尔起伏的绿丘之间。",
  "features": [
    {
      "kind": "zone",
      "label": "校区 / 区域",
      "color": "#16a34a",
      "defaultOn": true,
      "items": [
        {
          "name": "Central Grounds (Academical Village)",
          "nameCn": "中央校区（学术村）",
          "lat": 38.0356,
          "lng": -78.5033,
          "radius": 900,
          "note": "圆顶大厅与草坪核心区，本科教学与历史地标所在。"
        },
        {
          "name": "North Grounds",
          "nameCn": "北校区",
          "lat": 38.0492,
          "lng": -78.5128,
          "radius": 600,
          "note": "法学院、达顿商学院与体育馆集中的专业学院区。"
        },
        {
          "name": "UVA Health / University Medical Center",
          "nameCn": "弗大医疗中心",
          "lat": 38.0324,
          "lng": -78.4991,
          "radius": 600,
          "note": "教学医院与医学院临床区，紧邻中央校区东侧。"
        },
        {
          "name": "Fontaine Research Park",
          "nameCn": "方丹研究园",
          "lat": 38.0261,
          "lng": -78.5265,
          "radius": 500,
          "note": "校区西南的医学与生物研究园，含门诊与实验楼。"
        },
        {
          "name": "North Fork Discovery Park",
          "nameCn": "北叉研究园",
          "lat": 38.1502,
          "lng": -78.4343,
          "radius": 1200,
          "note": "城北约9英里的560英亩研究科技园区。"
        }
      ]
    },
    {
      "kind": "pointLayer",
      "key": "department",
      "label": "院系 / 教学楼",
      "color": "#2563eb",
      "icon": "school",
      "items": [
        {
          "name": "School of Law",
          "nameCn": "法学院",
          "lat": 38.0532,
          "lng": -78.5093,
          "note": "北校区，全美顶尖法学院之一。"
        },
        {
          "name": "Darden School of Business",
          "nameCn": "达顿商学院",
          "lat": 38.0522,
          "lng": -78.5135,
          "note": "案例教学闻名的研究生商学院。"
        },
        {
          "name": "School of Engineering (Thornton Hall)",
          "nameCn": "工程学院（桑顿楼）",
          "lat": 38.0331,
          "lng": -78.5103,
          "note": "中央校区西侧的工程与应用科学学院。"
        },
        {
          "name": "McIntire School of Commerce",
          "nameCn": "麦金太尔商学院",
          "lat": 38.0331,
          "lng": -78.5041,
          "note": "本科商科名校，临近圆顶大厅。"
        },
        {
          "name": "School of Medicine",
          "nameCn": "医学院",
          "lat": 38.0315,
          "lng": -78.4997,
          "note": "与医疗中心一体的临床医学教学区。"
        }
      ],
      "defaultOn": true
    },
    {
      "kind": "pointLayer",
      "key": "library",
      "label": "图书馆",
      "color": "#0891b2",
      "icon": "local_library",
      "items": [
        {
          "name": "Shannon Library (Alderman)",
          "nameCn": "香农图书馆（原奥尔德曼）",
          "lat": 38.0364,
          "lng": -78.5048,
          "note": "翻新重启的主图书馆，人文社科馆藏中枢。"
        },
        {
          "name": "Clemons Library",
          "nameCn": "克莱蒙斯图书馆",
          "lat": 38.0359,
          "lng": -78.5055,
          "note": "24小时学习空间与多媒体资源。"
        },
        {
          "name": "Albert and Shirley Small Special Collections Library",
          "nameCn": "斯莫尔特藏图书馆",
          "lat": 38.0368,
          "lng": -78.5043,
          "note": "珍本手稿与杰斐逊相关特藏。"
        }
      ]
    },
    {
      "kind": "pointLayer",
      "key": "museum",
      "label": "博物馆 / 展馆",
      "color": "#9333ea",
      "icon": "museum",
      "items": [
        {
          "name": "The Fralin Museum of Art",
          "nameCn": "弗拉林艺术博物馆",
          "lat": 38.0372,
          "lng": -78.5028,
          "note": "校园美术馆，藏古今与亚洲艺术。"
        },
        {
          "name": "Kluge-Ruhe Aboriginal Art Collection",
          "nameCn": "克鲁格-鲁厄澳洲原住民艺术馆",
          "lat": 38.0253,
          "lng": -78.4426,
          "note": "美国唯一专藏澳洲原住民艺术的博物馆。"
        }
      ]
    },
    {
      "kind": "pointLayer",
      "key": "landmark",
      "label": "地标 / 学生中心",
      "color": "#64748b",
      "icon": "place",
      "items": [
        {
          "name": "The Rotunda",
          "nameCn": "圆顶大厅",
          "lat": 38.0356,
          "lng": -78.5033,
          "note": "杰斐逊设计的校园象征与世界遗产核心。"
        },
        {
          "name": "The Lawn & Pavilions",
          "nameCn": "草坪与亭阁",
          "lat": 38.0348,
          "lng": -78.5036,
          "note": "梯台绿地两侧的列柱教授亭与学生宿舍。"
        },
        {
          "name": "Scott Stadium",
          "nameCn": "斯科特体育场",
          "lat": 38.0312,
          "lng": -78.5135,
          "note": "可容六万人的橄榄球主场。"
        },
        {
          "name": "John Paul Jones Arena",
          "nameCn": "约翰·保罗·琼斯球馆",
          "lat": 38.046,
          "lng": -78.5066,
          "note": "篮球主场与大型演出场馆。"
        },
        {
          "name": "Newcomb Hall",
          "nameCn": "纽科姆学生中心",
          "lat": 38.0356,
          "lng": -78.5061,
          "note": "学生活动中心与餐饮社团枢纽。"
        }
      ]
    },
    {
      "kind": "pointLayer",
      "key": "supermarket",
      "label": "超市 / 亚超",
      "color": "#ea580c",
      "icon": "shopping_cart",
      "items": [
        {
          "name": "Asian Market (亚洲超市)",
          "nameCn": "亚洲超市",
          "lat": 38.0561,
          "lng": -78.4966,
          "note": "校园北侧 Emmet St 上最近的综合亚超，中日韩泰食材齐全，周五到货最新鲜，骑车/公交 10 分钟可达。"
        },
        {
          "name": "C'ville Oriental",
          "nameCn": "夏村东方亚超",
          "lat": 38.0688,
          "lng": -78.4853,
          "note": "本地老牌华人亚超，中式调料、米面、火锅料和新鲜亚洲蔬菜最全，想做正经中餐来这里囤货。"
        },
        {
          "name": "Foods of All Nations",
          "nameCn": "万国食品超市",
          "lat": 38.0434,
          "lng": -78.5128,
          "note": "离学校仅 1.2km 的精品国际超市，亚洲调味料、酱油鱼露、香茅等难买食材都有，还带熟食热餐。"
        },
        {
          "name": "Harris Teeter (Barracks Road)",
          "nameCn": "哈里斯蒂特超市（兵营路店）",
          "lat": 38.0503,
          "lng": -78.5019,
          "note": "Barracks Road 购物中心内的主流大型连锁超市，日常米面果蔬肉蛋一站式采购，步行约 20 分钟。"
        },
        {
          "name": "Kroger (Barracks Road)",
          "nameCn": "克罗格超市（兵营路店）",
          "lat": 38.0512,
          "lng": -78.5031,
          "note": "兵营路上的平价大型超市，分量大价格友好，和 Harris Teeter 一条街，开学采买大件首选。"
        }
      ]
    },
    {
      "kind": "pointLayer",
      "key": "dining",
      "label": "必吃 / 餐饮",
      "color": "#dc2626",
      "icon": "restaurant",
      "items": [
        {
          "name": "Marco & Luca Dumpling Store (Got Dumplings)",
          "nameCn": "马可与卢卡饺子馆",
          "lat": 38.0361,
          "lng": -78.5004,
          "note": "Corner 街上的传奇小店，手工水饺加招牌辣酱便宜管饱，是 UVA 学生公认的中式深夜食堂。"
        },
        {
          "name": "Bodo's Bagels (UVA Corner)",
          "nameCn": "Bodo's 贝果（校角店）",
          "lat": 38.0355,
          "lng": -78.501,
          "note": "1988 年至今的夏村招牌，现烤纽约水煮贝果三明治，5 美元搞定一顿，UVA 必打卡早午餐。"
        },
        {
          "name": "Take It Away Sandwich Shop",
          "nameCn": "Take It Away 三明治店",
          "lat": 38.0362,
          "lng": -78.5003,
          "note": "Elliewood 巷里的几代 UVA 学生情怀三明治店，招牌 House Dressing 酱汁是灵魂，主打外带。"
        },
        {
          "name": "Peter Chang (Downtown)",
          "nameCn": "张鹏亮中餐（市区店）",
          "lat": 38.0299,
          "lng": -78.4849,
          "note": "名厨 Peter Chang 的正宗川菜，干煸豆角和鸡蛋泡饼出名（Barracks 老店已关，认准市区店）。"
        },
        {
          "name": "Mochiko Cville",
          "nameCn": "Mochiko 夏威夷亚洲快餐",
          "lat": 38.0357,
          "lng": -78.5006,
          "note": "Corner 上人气夏威夷-亚洲风味快餐，炸鸡饭和 poke 碗份量足，学生午餐高频选择。"
        }
      ]
    },
    {
      "kind": "pointLayer",
      "key": "services",
      "label": "生活服务",
      "color": "#0e7490",
      "icon": "account_balance",
      "items": [
        {
          "name": "Bank of America (University Branch)",
          "nameCn": "美国银行（大学支行）",
          "lat": 38.0355,
          "lng": -78.501,
          "note": "就在 Corner 上 1619 University Ave，新生开户、办借记卡最方便的大行网点，紧邻校园。"
        },
        {
          "name": "UVA Health University Hospital (ER)",
          "nameCn": "UVA 大学医院（急诊）",
          "lat": 38.026,
          "lng": -78.4925,
          "note": "校园南侧的大学附属医院，24 小时急诊，离主校区仅约 1.4km，突发就医的兜底去处。"
        },
        {
          "name": "CVS Pharmacy (The Corner)",
          "nameCn": "CVS 药房（校角店）",
          "lat": 38.0345,
          "lng": -78.5002,
          "note": "Corner 上的连锁药房，处方药、感冒药、日用品一应俱全，营业到晚上 11 点很救急。"
        },
        {
          "name": "Student Health & Wellness (UVA)",
          "nameCn": "UVA 学生健康中心",
          "lat": 38.0312,
          "lng": -78.5096,
          "note": "校内学生健康与心理咨询中心，看普通门诊（GP）、打疫苗、开转诊，持学生医保即可使用。"
        }
      ]
    },
    {
      "kind": "pointLayer",
      "key": "attractions",
      "label": "周边 / 打卡",
      "color": "#db2777",
      "icon": "photo_camera",
      "items": [
        {
          "name": "The Rotunda & The Lawn (UVA)",
          "nameCn": "圆顶大厅与草坪（UVA 学术村）",
          "lat": 38.0356,
          "lng": -78.5034,
          "note": "Jefferson 设计的校园心脏，UNESCO 世界遗产，免费参观，是 UVA 最经典的拍照与散步地标。"
        },
        {
          "name": "UVA Chapel",
          "nameCn": "UVA 教堂",
          "lat": 38.0364,
          "lng": -78.5046,
          "note": "紧邻圆顶大厅的哥特式石砌小教堂，建筑与彩窗很美，是校园里安静的出片角落。"
        },
        {
          "name": "Historic Downtown Mall",
          "nameCn": "历史步行街",
          "lat": 38.0304,
          "lng": -78.4799,
          "note": "离校约 2km 的砖砌步行街，餐厅、书店、电影院和市集云集，周末逛吃、看演出的好去处。"
        },
        {
          "name": "Monticello",
          "nameCn": "蒙蒂塞洛庄园",
          "lat": 38.0052,
          "lng": -78.4563,
          "note": "Jefferson 故居、UNESCO 世界遗产（驾车约 15 分钟），与 UVA 同列名录，最值得一去的人文景点。"
        },
        {
          "name": "Carter Mountain Orchard",
          "nameCn": "卡特山果园",
          "lat": 37.979,
          "lng": -78.4897,
          "note": "山顶果园（驾车约 15 分钟），秋季摘苹果、喝苹果酒，俯瞰夏村与蓝岭山脉的绝佳观景台。"
        }
      ]
    }
  ]
}
