{
  "id": "unsw",
  "type": "school",
  "name": "UNSW Sydney",
  "nameCn": "新南威尔士大学",
  "city": "Sydney",
  "center": [
    -33.9173,
    151.2308
  ],
  "zoom": 13,
  "blurb": "新南威尔士大学是悉尼东郊的研究型名校，以肯辛顿主校区为核心，沿安扎克大道铺展，并辐射帕丁顿艺术校区与兰德威克医学健康精区。",
  "features": [
    {
      "kind": "zone",
      "label": "校区 / 区域",
      "color": "#16a34a",
      "defaultOn": true,
      "items": [
        {
          "name": "Kensington Campus (Main)",
          "nameCn": "肯辛顿主校区",
          "lat": -33.9173,
          "lng": 151.2308,
          "radius": 700,
          "note": "38公顷主校区，工科、商科、理科及行政中枢所在。"
        },
        {
          "name": "Paddington Campus (Art & Design)",
          "nameCn": "帕丁顿艺术设计校区",
          "lat": -33.8838,
          "lng": 151.2203,
          "radius": 350,
          "note": "艺术与设计学院，距主校区有免费班车接驳。"
        },
        {
          "name": "Randwick Health & Innovation Precinct",
          "nameCn": "兰德威克健康创新精区",
          "lat": -33.9185,
          "lng": 151.239,
          "radius": 600,
          "note": "临床医学院与四家教学医院共址，全州最大医疗精区。"
        },
        {
          "name": "Sydney CBD Campus",
          "nameCn": "悉尼市中心校区",
          "lat": -33.8636,
          "lng": 151.2076,
          "radius": 250,
          "note": "乔治街210号试点校区，面向研究生与企业合作。"
        },
        {
          "name": "Water Research Laboratory (Manly Vale)",
          "nameCn": "曼利维尔水利研究实验室",
          "lat": -33.7855,
          "lng": 151.263,
          "radius": 300,
          "note": "土木与环境工程学院水利研究站，位于北海滩。"
        }
      ]
    },
    {
      "kind": "pointLayer",
      "key": "department",
      "label": "院系 / 教学楼",
      "color": "#2563eb",
      "icon": "school",
      "items": [
        {
          "name": "Quadrangle Building",
          "nameCn": "四方庭大楼",
          "lat": -33.9168,
          "lng": 151.2295,
          "note": "主校区行政与人文核心建筑。"
        },
        {
          "name": "Wallace Wurth Building (Medicine)",
          "nameCn": "华莱士·沃斯楼（医学）",
          "lat": -33.9162,
          "lng": 151.233,
          "note": "医学与健康学院基础医学教研楼。"
        },
        {
          "name": "Law Building",
          "nameCn": "法学院大楼",
          "lat": -33.9152,
          "lng": 151.232,
          "note": "UNSW 法学与司法学院所在地。"
        },
        {
          "name": "Anita B. Lawrence Centre (Science/Maths)",
          "nameCn": "安妮塔·劳伦斯中心",
          "lat": -33.9178,
          "lng": 151.2322,
          "note": "数学与理科教学楼，曾名 Red Centre。"
        },
        {
          "name": "Electrical Engineering Building",
          "nameCn": "电气工程大楼",
          "lat": -33.9188,
          "lng": 151.2305,
          "note": "工程学院电气与电信教研楼。"
        },
        {
          "name": "UNSW Business School",
          "nameCn": "商学院大楼",
          "lat": -33.9183,
          "lng": 151.2318,
          "note": "AGSM 与商学院本科研究生教学楼。"
        }
      ],
      "defaultOn": true
    },
    {
      "kind": "pointLayer",
      "key": "library",
      "label": "图书馆",
      "color": "#0891b2",
      "icon": "local_library",
      "items": [
        {
          "name": "UNSW Main Library",
          "nameCn": "主图书馆",
          "lat": -33.9175,
          "lng": 151.2312,
          "note": "图书馆草坪旁的中央图书馆，学习生活地标。"
        }
      ]
    },
    {
      "kind": "pointLayer",
      "key": "museum",
      "label": "博物馆 / 展馆",
      "color": "#9333ea",
      "icon": "museum",
      "items": [
        {
          "name": "UNSW Galleries",
          "nameCn": "UNSW 美术馆",
          "lat": -33.8836,
          "lng": 151.22,
          "note": "帕丁顿校区当代艺术展览空间。"
        }
      ]
    },
    {
      "kind": "pointLayer",
      "key": "landmark",
      "label": "地标 / 学生中心",
      "color": "#64748b",
      "icon": "place",
      "items": [
        {
          "name": "John Niland Scientia Building",
          "nameCn": "约翰·尼兰科学大楼",
          "lat": -33.9171,
          "lng": 151.23,
          "note": "标志性玻璃翼建筑，重大典礼场所。"
        },
        {
          "name": "The Roundhouse",
          "nameCn": "圆顶剧场",
          "lat": -33.9165,
          "lng": 151.2288,
          "note": "学生会演出与活动场地。"
        },
        {
          "name": "University Mall & Library Lawn",
          "nameCn": "大学步道与图书馆草坪",
          "lat": -33.9176,
          "lng": 151.2305,
          "note": "贯穿校园的中央步道与聚集草坪。"
        },
        {
          "name": "UNSW Light Rail Stop (Anzac Parade)",
          "nameCn": "UNSW 轻轨站",
          "lat": -33.9175,
          "lng": 151.2278,
          "note": "L2 线轻轨站，安扎克大道校门口。"
        }
      ]
    },
    {
      "kind": "pointLayer",
      "key": "supermarket",
      "label": "超市 / 亚超",
      "color": "#ea580c",
      "icon": "shopping_cart",
      "items": [
        {
          "name": "Royal Randwick Shopping Centre (Woolworths Metro + Harris Farm)",
          "nameCn": "皇家兰德威克购物中心(Woolworths + Harris Farm)",
          "lat": -33.9151,
          "lng": 151.2409,
          "note": "离上校区步行约10分钟,日常买菜买生活用品最方便的去处,内有Woolworths和Harris Farm生鲜超市。"
        },
        {
          "name": "Coles Randwick (Randwick Plaza)",
          "nameCn": "Coles 超市(兰德威克广场)",
          "lat": -33.9145,
          "lng": 151.2419,
          "note": "皇家兰德威克对面,澳洲两大主流超市之一,价格实惠、品类齐全,学生采购首选。"
        },
        {
          "name": "Tokyo Super",
          "nameCn": "东京超市(日韩亚超)",
          "lat": -33.9221,
          "lng": 151.2271,
          "note": "Anzac Parade上的日韩亚洲超市,买拉面、调料、零食和日韩食材很全,离校近。"
        },
        {
          "name": "Randwick Oriental Supermarket (Kingsford)",
          "nameCn": "东方超市 金斯福德店",
          "lat": -33.9239,
          "lng": 151.2258,
          "note": "Anzac Parade 500号的华人超市,酱料、香料、火锅料、中式调味一应俱全,解乡愁必备。"
        },
        {
          "name": "Kingsford Indonesian & Asian Grocery",
          "nameCn": "金斯福德印尼亚洲杂货店",
          "lat": -33.9215,
          "lng": 151.2272,
          "note": "主营东南亚和印尼食材,想做南洋菜或找特色香料调料可以来这里。"
        }
      ]
    },
    {
      "kind": "pointLayer",
      "key": "dining",
      "label": "必吃 / 餐饮",
      "color": "#dc2626",
      "icon": "restaurant",
      "items": [
        {
          "name": "Xi'an Taste 大秦小味",
          "nameCn": "大秦小味(西安风味)",
          "lat": -33.9234,
          "lng": 151.2261,
          "note": "Anzac Parade上的西北菜馆,biangbiang面和手工水饺有名,分量足价格实在,留学生热门。"
        },
        {
          "name": "It's Time for Thai",
          "nameCn": "泰时泰泰国餐厅",
          "lat": -33.922,
          "lng": 151.2272,
          "note": "紧挨UNSW和Kingsford轻轨站,UNSW学生最爱的泰餐,味道正、分量大、价格友好(清真)。"
        },
        {
          "name": "Ayam Goreng 99",
          "nameCn": "Ayam Goreng 99 印尼炸鸡",
          "lat": -33.9252,
          "lng": 151.2256,
          "note": "悉尼数一数二的印尼餐厅,招牌炭烤鸡和炸鸡配辣椒酱,沙爹、炒饭炒面都很地道。"
        },
        {
          "name": "We Wok (formerly Kingsford Chinese Restaurant)",
          "nameCn": "We Wok(原金斯福德中餐馆)",
          "lat": -33.9243,
          "lng": 151.2258,
          "note": "Anzac Parade 426号老牌粤式中餐,UNSW师生常去,炒菜烧腊家常味。"
        },
        {
          "name": "Spureats Dumpling Noodle (Anzac Parade)",
          "nameCn": "Spureats 川味面馆",
          "lat": -33.9228,
          "lng": 151.2263,
          "note": "Kingsford美食街上的川味小馆,辣味面食和小吃管饱,学生快餐之选。"
        },
        {
          "name": "The Spot, Randwick (cafes & The Ritz Cinema)",
          "nameCn": "The Spot 美食娱乐区(含Ritz老电影院)",
          "lat": -33.9168,
          "lng": 151.2493,
          "note": "兰德威克的咖啡馆与餐厅聚集地,周末早午餐(brunch)和复古Ritz电影院体验地道悉尼生活。"
        }
      ]
    },
    {
      "kind": "pointLayer",
      "key": "services",
      "label": "生活服务",
      "color": "#0e7490",
      "icon": "account_balance",
      "items": [
        {
          "name": "Prince of Wales Hospital (Emergency Department)",
          "nameCn": "威尔士亲王医院(急诊)",
          "lat": -33.9183,
          "lng": 151.2406,
          "note": "校区东侧Barker St,公立大医院带24小时急诊,生病或紧急情况就近就医。"
        },
        {
          "name": "Commonwealth Bank — Kingsford branch",
          "nameCn": "联邦银行 金斯福德支行",
          "lat": -33.9254,
          "lng": 151.2262,
          "note": "Anzac Parade上的CBA网点,办本地银行卡/开户、取现金方便,留学生常用银行。"
        },
        {
          "name": "Chemist Warehouse Kingsford",
          "nameCn": "Chemist Warehouse 药房 金斯福德店",
          "lat": -33.924,
          "lng": 151.2259,
          "note": "澳洲连锁平价药房,买药、保健品、日用品和处方药都便宜,营业到晚。"
        },
        {
          "name": "Telstra / Optus phone shops (Royal Randwick)",
          "nameCn": "Telstra/Optus 通讯店(皇家兰德威克)",
          "lat": -33.915,
          "lng": 151.241,
          "note": "购物中心内运营商门店,办手机卡和电话套餐,落地先来这里开通本地号码。"
        }
      ]
    },
    {
      "kind": "pointLayer",
      "key": "attractions",
      "label": "周边 / 打卡",
      "color": "#db2777",
      "icon": "photo_camera",
      "items": [
        {
          "name": "Coogee Beach",
          "nameCn": "库吉海滩",
          "lat": -33.9205,
          "lng": 151.2576,
          "note": "离校约7分钟车程的人气海滩,沙细水清,海边步道和岩石泳池适合周末放松拍照。"
        },
        {
          "name": "Centennial Park",
          "nameCn": "百年纪念公园",
          "lat": -33.8979,
          "lng": 151.2335,
          "note": "校区北面189公顷大公园,湖泊草坪林荫道,跑步骑行野餐的好去处。"
        },
        {
          "name": "Coogee to Bondi Coastal Walk",
          "nameCn": "库吉至邦迪海岸步道",
          "lat": -33.918,
          "lng": 151.262,
          "note": "悉尼最经典的海岸徒步路线起点,沿途悬崖海湾风景绝佳,必打卡。"
        },
        {
          "name": "Royal Randwick Racecourse",
          "nameCn": "皇家兰德威克赛马场",
          "lat": -33.9056,
          "lng": 151.2306,
          "note": "校区旁的历史赛马场,赛马日和大型活动热闹,体验本地文化。"
        },
        {
          "name": "Wylie's Baths",
          "nameCn": "怀利海水浴场",
          "lat": -33.9241,
          "lng": 151.2585,
          "note": "库吉南端百年历史的海崖泳池,木栈道日落景观出片,夏天游泳好地方。"
        }
      ]
    }
  ]
}
