{
  "id": "unsw",
  "type": "school",
  "name": "UNSW Sydney",
  "nameCn": "新南威尔士大学",
  "city": "Sydney",
  "center": [
    -33.9173,
    151.2308
  ],
  "zoom": 13,
  "blurb": "新南威尔士大学是悉尼东郊的研究型名校，以肯辛顿主校区为核心，沿安扎克大道铺展，并辐射帕丁顿艺术校区与兰德威克医学健康精区。",
  "features": [
    {
      "kind": "zone",
      "label": "校区 / 区域",
      "color": "#16a34a",
      "defaultOn": true,
      "items": [
        {
          "name": "Kensington Campus (Main)",
          "nameCn": "肯辛顿主校区",
          "lat": -33.9173,
          "lng": 151.2308,
          "radius": 700,
          "note": "38公顷主校区，工科、商科、理科及行政中枢所在。"
        },
        {
          "name": "Paddington Campus (Art & Design)",
          "nameCn": "帕丁顿艺术设计校区",
          "lat": -33.8838,
          "lng": 151.2203,
          "radius": 350,
          "note": "艺术与设计学院，距主校区有免费班车接驳。"
        },
        {
          "name": "Randwick Health & Innovation Precinct",
          "nameCn": "兰德威克健康创新精区",
          "lat": -33.9185,
          "lng": 151.239,
          "radius": 600,
          "note": "临床医学院与四家教学医院共址，全州最大医疗精区。"
        },
        {
          "name": "Sydney CBD Campus",
          "nameCn": "悉尼市中心校区",
          "lat": -33.8636,
          "lng": 151.2076,
          "radius": 250,
          "note": "乔治街210号试点校区，面向研究生与企业合作。"
        },
        {
          "name": "Water Research Laboratory (Manly Vale)",
          "nameCn": "曼利维尔水利研究实验室",
          "lat": -33.7811,
          "lng": 151.2582,
          "radius": 300,
          "note": "土木与环境工程学院水利研究站，位于北海滩。"
        }
      ]
    },
    {
      "kind": "pointLayer",
      "key": "department",
      "label": "院系 / 教学楼",
      "color": "#2563eb",
      "icon": "school",
      "items": [
        {
          "name": "UNSW Business School (Quadrangle Building E15)",
          "nameCn": "商学院（四方楼）",
          "lat": -33.917,
          "lng": 151.2318,
          "rank": 1,
          "tier": "必去",
          "note": "澳洲顶级商学院，含 AGSM MBA 项目，位于校园十字路口，是商科生最常驻扎的地方。"
        },
        {
          "name": "UNSW Faculty of Engineering – Science & Engineering Building (E8)",
          "nameCn": "工程学院（理工大楼 E8）",
          "lat": -33.9173,
          "lng": 151.2298,
          "rank": 2,
          "tier": "必去",
          "note": "全澳最大工程学院之一，E8 楼是工程与计算机专业学生的核心教学楼。"
        },
        {
          "name": "Anita B. Lawrence Centre (Red Centre, H13)",
          "nameCn": "红楼（H13）",
          "lat": -33.9168,
          "lng": 151.2315,
          "rank": 3,
          "tier": "必去",
          "note": "标志性红砖建筑，位于主干道中央，内设数学与建筑环境学院，是校园最显眼的地标之一。"
        },
        {
          "name": "John Niland Scientia Building (G19)",
          "nameCn": "西恩蒂亚大楼（G19）",
          "lat": -33.9175,
          "lng": 151.2325,
          "rank": 4,
          "tier": "必去",
          "note": "校园典礼与文化中心，含 Leighton Hall 礼堂和展览画廊，是毕业典礼和大型讲座举办地。"
        },
        {
          "name": "UNSW Law Building (F8)",
          "nameCn": "法学院楼（F8）",
          "lat": -33.9165,
          "lng": 151.2312,
          "rank": 5,
          "tier": "强烈推荐",
          "note": "世界百强法学院，含 24 小时法学图书馆，是法律专业学生学习的核心场所。"
        },
        {
          "name": "Tyree Energy Technologies Building (H6)",
          "nameCn": "泰瑞能源技术楼（H6）",
          "lat": -33.9188,
          "lng": 151.2308,
          "rank": 6,
          "tier": "强烈推荐",
          "note": "荣获六星绿星认证的可持续建筑，面朝 Anzac Parade，是能源工程研究的旗舰基地。"
        },
        {
          "name": "Wallace Wurth Medical Sciences Building (C27)",
          "nameCn": "医学院大楼（C27）",
          "lat": -33.9148,
          "lng": 151.2302,
          "rank": 7,
          "tier": "强烈推荐",
          "note": "医学院核心教学楼，与 Lowy 癌症研究中心相连，毗邻 Randwick 教学医院群。"
        },
        {
          "name": "Lowy Cancer Research Centre",
          "nameCn": "洛伊癌症研究中心",
          "lat": -33.9145,
          "lng": 151.2298,
          "rank": 8,
          "tier": "推荐",
          "note": "澳大利亚首个成人与儿童癌症联合研究设施，可容纳 400 名研究人员，建筑设计前卫。"
        },
        {
          "name": "Mathews Building & Mathews Arcade (F23)",
          "nameCn": "马修斯楼与美食广场（F23）",
          "lat": -33.9163,
          "lng": 151.2328,
          "rank": 9,
          "tier": "推荐",
          "note": "上校区核心食堂区和大教室所在地，含 Mathews Theatres，是人文社科学生最常上课的楼群。"
        },
        {
          "name": "AGSM Building (G27)",
          "nameCn": "澳洲管理研究院大楼（G27）",
          "lat": -33.9155,
          "lng": 151.2338,
          "rank": 10,
          "tier": "推荐",
          "note": "澳洲顶级 MBA 学院所在地，靠近 Gate 11 Botany Street，研究生商科教育重镇。"
        },
        {
          "name": "Ainsworth Building (K17)",
          "nameCn": "艾恩斯沃斯楼（K17）",
          "lat": -33.9178,
          "lng": 151.2323,
          "rank": 11,
          "tier": "推荐",
          "note": "内含多个阶梯大教室，是工程、理学院常用的大型讲座教学楼。"
        }
      ],
      "defaultOn": true
    },
    {
      "kind": "pointLayer",
      "key": "library",
      "label": "图书馆",
      "color": "#0891b2",
      "icon": "local_library",
      "items": [
        {
          "name": "UNSW Main Library (F21)",
          "nameCn": "UNSW 主图书馆",
          "lat": -33.9162,
          "lng": 151.233,
          "rank": 1,
          "tier": "必去",
          "note": "校内最大图书馆，含 Level 8 自习舱、可预约小组讨论室，Level 2 设学生服务中心 Nucleus。"
        },
        {
          "name": "UNSW Law Library (F8)",
          "nameCn": "法学院图书馆",
          "lat": -33.9165,
          "lng": 151.2312,
          "rank": 2,
          "tier": "必去",
          "note": "全年 24 小时向 UNSW 学生开放，法律专业的深夜备考圣地。"
        },
        {
          "name": "Quadrangle Study Space / Library (E15)",
          "nameCn": "四方楼自习室",
          "lat": -33.917,
          "lng": 151.2318,
          "rank": 3,
          "tier": "强烈推荐",
          "note": "商学院配套自习空间，安静且方便，商科、经济学学生首选备考场所。"
        },
        {
          "name": "Tyree Energy Technology Study Space (H6)",
          "nameCn": "泰瑞楼自习室",
          "lat": -33.9188,
          "lng": 151.2308,
          "rank": 4,
          "tier": "强烈推荐",
          "note": "理工科学生常用的现代化学习空间，自然采光好，有可预约小组室。"
        },
        {
          "name": "Law Building Study Space (F8 Upper Floors)",
          "nameCn": "法学楼高层自习区",
          "lat": -33.9166,
          "lng": 151.2311,
          "rank": 5,
          "tier": "推荐",
          "note": "法学院楼内配套自习区，宽敞安静，附带法律数据库访问终端。"
        },
        {
          "name": "UNSW Paddington Library (Art & Design Campus)",
          "nameCn": "帕丁顿图书馆（艺术设计校区）",
          "lat": -33.8833,
          "lng": 151.2227,
          "rank": 6,
          "tier": "推荐",
          "note": "专为艺术与设计专业学生服务，位于帕丁顿校区，校车每小时免费往返肯辛顿。"
        }
      ]
    },
    {
      "kind": "pointLayer",
      "key": "museum",
      "label": "博物馆 / 展馆",
      "color": "#9333ea",
      "icon": "museum",
      "items": [
        {
          "name": "Museum of Human Disease (Samuels Building, UNSW)",
          "nameCn": "人类疾病博物馆",
          "lat": -33.9153,
          "lng": 151.2296,
          "rank": 1,
          "tier": "必去",
          "note": "澳洲唯一公众开放的病理标本馆，收藏逾 1500 件人体组织，医学、生科学生必看。"
        },
        {
          "name": "UNSW Galleries (Paddington Campus)",
          "nameCn": "UNSW 当代艺术展馆",
          "lat": -33.8835,
          "lng": 151.223,
          "rank": 2,
          "tier": "强烈推荐",
          "note": "2013 年开馆，专注当代艺术与设计展览，融合气候、身份等社会议题，靠近帕丁顿校区。"
        },
        {
          "name": "Scientia Galleries (John Niland Scientia Building, G19)",
          "nameCn": "西恩蒂亚展览厅",
          "lat": -33.9175,
          "lng": 151.2325,
          "rank": 3,
          "tier": "推荐",
          "note": "校园内核心展览空间，不定期举办学术成果与艺术展览，免费向公众开放。"
        },
        {
          "name": "Kudos Gallery (UNSW Art & Design, Paddington)",
          "nameCn": "Kudos 学生画廊",
          "lat": -33.8837,
          "lng": 151.2232,
          "rank": 4,
          "tier": "推荐",
          "note": "UNSW 艺术与设计学生作品展示空间，常举办期末毕业展，展示新锐创意。"
        }
      ]
    },
    {
      "kind": "pointLayer",
      "key": "landmark",
      "label": "地标 / 学生中心",
      "color": "#64748b",
      "icon": "place",
      "items": [
        {
          "name": "Arc UNSW Student Life (Basser Steps, D17)",
          "nameCn": "Arc 学生会",
          "lat": -33.9171,
          "lng": 151.232,
          "rank": 1,
          "tier": "必去",
          "note": "UNSW 学生会总部，管理 300 余个社团，是国际生融入社交圈的最佳起点。"
        },
        {
          "name": "Roundhouse (E6)",
          "nameCn": "圆形会场",
          "lat": -33.9162,
          "lng": 151.2296,
          "rank": 2,
          "tier": "必去",
          "note": "校园标志性演出与社交场所，内设啤酒花园和美食区，是学生派对和演唱会的聚集地。"
        },
        {
          "name": "Scientia Lawn & University Mall",
          "nameCn": "西恩蒂亚草坪与校园步行街",
          "lat": -33.9174,
          "lng": 151.2322,
          "rank": 3,
          "tier": "必去",
          "note": "校园中轴线绿草地，是晒太阳、野餐和户外集会的热门地点，也是新生定向的集合点。"
        },
        {
          "name": "The Nucleus: Student Hub (Main Library, F21, Level 2)",
          "nameCn": "Nucleus 学生服务中心",
          "lat": -33.9162,
          "lng": 151.233,
          "rank": 4,
          "tier": "必去",
          "note": "一站式学籍、签证合规、国际学生支持服务窗口，每学期初务必来此办理入学手续。"
        },
        {
          "name": "UNSW Village Green (Lower Campus)",
          "nameCn": "校园绿地广场（下校区）",
          "lat": -33.9185,
          "lng": 151.2308,
          "rank": 5,
          "tier": "强烈推荐",
          "note": "下校区开阔草坪，毗邻宿舍村，是课间休息、午餐聚会和各类 O-Week 活动的主要户外空间。"
        },
        {
          "name": "UNSW Anzac Parade Light Rail Stop",
          "nameCn": "Anzac 大道轻轨站",
          "lat": -33.919,
          "lng": 151.2304,
          "rank": 6,
          "tier": "强烈推荐",
          "note": "L3 Kingsford 线，15 分钟直达悉尼 CBD，是国际学生出行最常用的交通枢纽。"
        },
        {
          "name": "NIDA – National Institute of Dramatic Art",
          "nameCn": "澳大利亚国家戏剧学院",
          "lat": -33.9183,
          "lng": 151.23,
          "rank": 7,
          "tier": "推荐",
          "note": "紧邻 UNSW，是凯特·布兰切特等知名演员的母校，Parade Theatres 常有高质量话剧公演。"
        }
      ]
    },
    {
      "kind": "pointLayer",
      "key": "supermarket",
      "label": "超市 / 亚超",
      "color": "#ea580c",
      "icon": "shopping_cart",
      "items": [
        {
          "name": "IGA Local Grocer UNSW (17 High St, Kensington)",
          "nameCn": "IGA UNSW 校园超市",
          "lat": -33.92,
          "lng": 151.2313,
          "rank": 1,
          "tier": "必去",
          "note": "距下校区步行 5 分钟，营业时间长，是日常补给最方便的选择，含进口零食和亚洲调味料。"
        },
        {
          "name": "Woolworths Metro Randwick (Royal Randwick Shopping Centre, 73 Belmore Rd)",
          "nameCn": "Woolworths Metro 兰德威克店",
          "lat": -33.9148,
          "lng": 151.242,
          "rank": 2,
          "tier": "必去",
          "note": "Woolworths 便利超市，品类齐全，位于 Royal Randwick 购物中心内，是采购生活用品的首选。"
        },
        {
          "name": "Coles Randwick (148 Belmore Rd, Randwick)",
          "nameCn": "Coles 兰德威克店",
          "lat": -33.9155,
          "lng": 151.2432,
          "rank": 3,
          "tier": "必去",
          "note": "大型超市，价格实惠，距 UNSW 高街轻轨站约 500 米，自有品牌物美价廉。"
        },
        {
          "name": "Harris Farm Markets Randwick (Royal Randwick Shopping Centre, 73-109 Belmore Rd)",
          "nameCn": "Harris Farm 精品生鲜超市",
          "lat": -33.9148,
          "lng": 151.2425,
          "rank": 4,
          "tier": "强烈推荐",
          "note": "悉尼知名精品生鲜超市，新鲜蔬果和进口食材齐全，价格略高但品质出色。"
        },
        {
          "name": "Hidaka Asian Supermarket (UNSW campus area)",
          "nameCn": "日高亚洲超市",
          "lat": -33.9195,
          "lng": 151.231,
          "rank": 5,
          "tier": "强烈推荐",
          "note": "校区内亚洲食品超市，供应日韩中食材及零食，是国际学生补充家乡味道的便捷选择。"
        },
        {
          "name": "IGA Local Grocer Kingsford (361 Anzac Pde, Kingsford)",
          "nameCn": "IGA 金斯福德店",
          "lat": -33.9238,
          "lng": 151.2295,
          "rank": 6,
          "tier": "推荐",
          "note": "Anzac 大道上的社区超市，覆盖基本生活用品和部分亚洲食材，步行可达。"
        },
        {
          "name": "Thai Kee IGA (Sydney Chinatown, Haymarket)",
          "nameCn": "泰记 IGA 中华超市（唐人街）",
          "lat": -33.8789,
          "lng": 151.2053,
          "rank": 7,
          "tier": "推荐",
          "note": "悉尼唐人街最大华人超市，提供各类中式食材、鱼露、冷冻食品，周末与朋友同游首选。"
        }
      ]
    },
    {
      "kind": "pointLayer",
      "key": "dining",
      "label": "必吃 / 餐饮",
      "color": "#dc2626",
      "icon": "restaurant",
      "items": [
        {
          "name": "Zhou Mum Cafe (243-245 Anzac Pde, Kingsford)",
          "nameCn": "周妈妈咖啡餐厅",
          "lat": -33.9228,
          "lng": 151.2293,
          "rank": 1,
          "tier": "绝对必吃",
          "note": "UNSW 留学生口耳相传的中餐老店，现金支付可享超低价套餐，豆豉鱼和蒸菜是招牌。"
        },
        {
          "name": "Hoh Won Chinese Restaurant (134 Anzac Pde, Kensington)",
          "nameCn": "合和中餐厅",
          "lat": -33.9205,
          "lng": 151.2305,
          "rank": 2,
          "tier": "绝对必吃",
          "note": "开业数十年的家庭粤式餐厅，山东鸡和酸辣汤是招牌，永远爆满，建议提前订位。"
        },
        {
          "name": "Alleyway Kitchen (Quad Food Court, UNSW)",
          "nameCn": "胡同厨房（校内四方楼美食广场）",
          "lat": -33.917,
          "lng": 151.2316,
          "rank": 3,
          "tier": "绝对必吃",
          "note": "校内最受欢迎的中式快餐，份量大、价格约 $15，米饭/面条任选，常常排长队。"
        },
        {
          "name": "Chairman Mao Chinese Restaurant (189 Anzac Pde, Kensington)",
          "nameCn": "毛主席湘菜馆",
          "lat": -33.9213,
          "lng": 151.2303,
          "rank": 4,
          "tier": "绝对必吃",
          "note": "以湖南辣味菜系为主，红烧肉和剁椒口味深受留学生喜爱，性价比高。"
        },
        {
          "name": "88 Asian Food (369 Anzac Pde, Kingsford)",
          "nameCn": "88 亚洲美食",
          "lat": -33.9243,
          "lng": 151.2292,
          "rank": 5,
          "tier": "绝对必吃",
          "note": "港式烧腊饭和叉烧饭，不足 $10 即可吃饱，留学生的高频廉价午餐选项。"
        },
        {
          "name": "Chinese Dumpling and Noodle House (430 Anzac Pde, Kingsford)",
          "nameCn": "中国饺子面条馆",
          "lat": -33.9258,
          "lng": 151.229,
          "rank": 6,
          "tier": "绝对必吃",
          "note": "手工现包饺子，有水饺、蒸饺和煎饺多种选择，价格亲民，被学生评为 Anzac 大道必吃。"
        },
        {
          "name": "Turpan Restaurant (240 Anzac Pde, Kensington)",
          "nameCn": "吐鲁番餐厅",
          "lat": -33.9222,
          "lng": 151.2297,
          "rank": 7,
          "tier": "很推荐",
          "note": "新疆维吾尔族清真餐厅，烤串、手抓羊肉和新疆大盘鸡风味独特，是 Anzac 大道最具特色的异域选择。"
        },
        {
          "name": "Manpuku Kingsford (482 Anzac Pde, Kingsford)",
          "nameCn": "满腹日式拉面",
          "lat": -33.9265,
          "lng": 151.2289,
          "rank": 8,
          "tier": "很推荐",
          "note": "正宗日式拉面，持学生证可免费加面，黑蒜油豚骨汤底浓郁，学生聚餐热门选择。"
        },
        {
          "name": "New Dong Dong Noodles (428 Anzac Pde, Kingsford)",
          "nameCn": "新东东面馆",
          "lat": -33.9257,
          "lng": 151.229,
          "rank": 9,
          "tier": "很推荐",
          "note": "开放式厨房粤式餐厅，提供火锅、炒面、肠粉和各式粥品，性价比高。"
        },
        {
          "name": "Taste of Home – 湘聚 (486 Anzac Pde, Kingsford)",
          "nameCn": "湘聚家乡菜",
          "lat": -33.9267,
          "lng": 151.2289,
          "rank": 10,
          "tier": "很推荐",
          "note": "湖南家常菜馆，鱼香茄子和腊肉口碑极佳，节假日聚餐和生日庆祝的热门场所。"
        },
        {
          "name": "Mamak Village (University Terraces, Lower Campus UNSW)",
          "nameCn": "Mamak 马来西亚餐厅（下校区）",
          "lat": -33.9187,
          "lng": 151.2305,
          "rank": 11,
          "tier": "很推荐",
          "note": "校内正宗马来西亚煎饼和咖喱饭，$12 起，是课间快速填饱肚子的好选择。"
        },
        {
          "name": "Pho House / Tropical Green (Pavilions, Upper Campus UNSW)",
          "nameCn": "越南河粉馆（上校区 Pavilions）",
          "lat": -33.9162,
          "lng": 151.2325,
          "rank": 12,
          "tier": "很推荐",
          "note": "校内越南餐，河粉 $14 起，越南法棍不足 $10，国际留学生好评不断。"
        },
        {
          "name": "Sharetea UNSW (Lower Campus)",
          "nameCn": "歇脚亭珍珠奶茶（UNSW 店）",
          "lat": -33.9192,
          "lng": 151.2308,
          "rank": 13,
          "tier": "一般",
          "note": "知名台式奶茶品牌，虎珍珠奶茶 $10 以内，课后饮品首选，常排长队。"
        },
        {
          "name": "Coogee Pavilion (169 Dolphin St, Coogee)",
          "nameCn": "库吉海滨酒吧餐厅",
          "lat": -33.9218,
          "lng": 151.2568,
          "rank": 14,
          "tier": "一般",
          "note": "面朝库吉海滩的多层餐饮娱乐综合体，屋顶吧台景色绝佳，海鲜和披萨受学生欢迎。"
        }
      ]
    },
    {
      "kind": "pointLayer",
      "key": "services",
      "label": "生活服务",
      "color": "#0e7490",
      "icon": "account_balance",
      "items": [
        {
          "name": "CommBank Randwick Branch (Ground Floor, 92-94 Belmore Rd, Randwick)",
          "nameCn": "联邦银行 兰德威克支行",
          "lat": -33.9147,
          "lng": 151.244,
          "rank": 1,
          "tier": "必去",
          "note": "距 UNSW 最近的 CommBank 支行（校内原支行已关闭），国际学生首选开户银行，可提前 14 天在线预办理。"
        },
        {
          "name": "UNSW Health Service (Ground Floor, East Quadrangle, Kensington)",
          "nameCn": "UNSW 校医服务中心",
          "lat": -33.9167,
          "lng": 151.2316,
          "rank": 2,
          "tier": "必去",
          "note": "持 Medibank/Bupa OSHC 保险学生免费就诊，提供 GP、专科转诊及精神健康支持，预约电话 02 9385 5425。"
        },
        {
          "name": "Prince of Wales Hospital (Barker St, Randwick)",
          "nameCn": "威尔士亲王医院",
          "lat": -33.9173,
          "lng": 151.2405,
          "rank": 3,
          "tier": "必去",
          "note": "UNSW 医学院附属教学医院，急诊 24 小时，是校园周边最近的综合性公立医院。"
        },
        {
          "name": "Pharmacy @ UNSW (Shop G039, Quadrangle Building, College Rd)",
          "nameCn": "UNSW 校内药房",
          "lat": -33.917,
          "lng": 151.2317,
          "rank": 4,
          "tier": "必去",
          "note": "校内唯一药房，处方药、OTC 药品及日用医疗用品一应俱全，国际学生生病首选。"
        },
        {
          "name": "Westpac Randwick Branch (49-51 Belmore Rd, Randwick)",
          "nameCn": "西太平洋银行 兰德威克支行",
          "lat": -33.915,
          "lng": 151.2438,
          "rank": 5,
          "tier": "强烈推荐",
          "note": "澳洲四大银行之一，提供免费学生账户，可与 ANZ、NAB、CBA 共用 ATM 免手续费。"
        },
        {
          "name": "ANZ Bank Randwick (12-14 Belmore Rd, Randwick)",
          "nameCn": "澳新银行 兰德威克支行",
          "lat": -33.9148,
          "lng": 151.2437,
          "rank": 6,
          "tier": "强烈推荐",
          "note": "可在抵澳前通过 ANZ Plus App 开户，国际学生友好，Belmore Rd 银行集中区。"
        },
        {
          "name": "Telstra Store Randwick (48 Belmore Rd, Randwick)",
          "nameCn": "Telstra 电信门店 兰德威克",
          "lat": -33.9149,
          "lng": 151.2439,
          "rank": 7,
          "tier": "强烈推荐",
          "note": "澳洲最大电信运营商实体店，购买预付 SIM 卡或办理月租套餐均可，信号覆盖最广。"
        },
        {
          "name": "Optus Store Randwick (Shop 3, 57-63 Belmore Rd, Randwick)",
          "nameCn": "Optus 门店 兰德威克",
          "lat": -33.9153,
          "lng": 151.244,
          "rank": 8,
          "tier": "推荐",
          "note": "Optus 提供专属学生 100GB 流量月租方案，性价比高，是 Telstra 替代选项。"
        }
      ]
    },
    {
      "kind": "pointLayer",
      "key": "attractions",
      "label": "周边 / 打卡",
      "color": "#db2777",
      "icon": "photo_camera",
      "items": [
        {
          "name": "Coogee Beach",
          "nameCn": "库吉海滩",
          "lat": -33.9203,
          "lng": 151.2581,
          "rank": 1,
          "tier": "必去",
          "note": "距 UNSW 乘公交仅 8 分钟，是悉尼最适合日常游泳和放松的海滩，留学生周末必打卡。"
        },
        {
          "name": "Bondi to Coogee Coastal Walk",
          "nameCn": "邦迪至库吉海岸步道",
          "lat": -33.8908,
          "lng": 151.2785,
          "rank": 2,
          "tier": "必去",
          "note": "6 公里沿海步道，途经 Bronte、Clovelly 等美丽海滩，是悉尼最著名的户外徒步路线。"
        },
        {
          "name": "Bondi Beach",
          "nameCn": "邦迪海滩",
          "lat": -33.8908,
          "lng": 151.2785,
          "rank": 3,
          "tier": "必去",
          "note": "悉尼最著名的地标海滩，Bondi Icebergs 泳池是全球最上镜的打卡点之一。"
        },
        {
          "name": "Centennial Parklands",
          "nameCn": "百年公园",
          "lat": -33.8981,
          "lng": 151.232,
          "rank": 4,
          "tier": "必去",
          "note": "360 公顷城市绿肺，骑行、野餐、慢跑均宜，是 UNSW 学生周末逃离城市的首选绿地。"
        },
        {
          "name": "Royal Randwick Racecourse (77-97 Alison Rd, Randwick)",
          "nameCn": "皇家兰德威克赛马场",
          "lat": -33.9058,
          "lng": 151.2422,
          "rank": 5,
          "tier": "强烈推荐",
          "note": "澳大利亚最古老赛马场（1833 年），The Everest 等顶级赛事在此举办，也是大型音乐节场地。"
        },
        {
          "name": "Wylie's Baths (Neptune St, Coogee)",
          "nameCn": "怀利海水浴场",
          "lat": -33.9238,
          "lng": 151.2578,
          "rank": 6,
          "tier": "强烈推荐",
          "note": "建于 1907 年的历史潮汐泳池，全年开放，提供瑜伽课和咖啡厅，是宁静的海滨休闲胜地。"
        },
        {
          "name": "Allianz Stadium & Sydney Cricket Ground (Driver Ave, Moore Park)",
          "nameCn": "联盟体育场与悉尼板球场",
          "lat": -33.8891,
          "lng": 151.2252,
          "rank": 7,
          "tier": "强烈推荐",
          "note": "两大世界级体育场馆，轻轨直达，橄榄球、足球和板球比赛热闹非凡，国际学生体验澳洲体育文化必去。"
        },
        {
          "name": "The Spot & Ritz Cinema (Perouse Rd / St Pauls St, Randwick)",
          "nameCn": "The Spot 艺文区 & 里兹电影院",
          "lat": -33.9138,
          "lng": 151.245,
          "rank": 8,
          "tier": "强烈推荐",
          "note": "兰德威克艺文商圈，含 1937 年建成的装饰艺术风格里兹电影院，独立影片和艺术片的放映圣地。"
        },
        {
          "name": "Spice Alley, Chippendale (Kensington St, Chippendale)",
          "nameCn": "香料巷（奇彭代尔）",
          "lat": -33.892,
          "lng": 151.1998,
          "rank": 9,
          "tier": "推荐",
          "note": "悬挂黄色灯笼的亚洲街头美食小巷，含日式、越南、马来西亚等六家摊位，轻轨即达，留学生的平价美食天堂。"
        },
        {
          "name": "Chinatown Sydney (Dixon St, Haymarket)",
          "nameCn": "悉尼唐人街",
          "lat": -33.8789,
          "lng": 151.2055,
          "rank": 10,
          "tier": "推荐",
          "note": "悉尼中华文化聚集地，Market City 内有大型亚洲超市，每逢春节热闹非凡，解思乡之情首选。"
        },
        {
          "name": "Bronte Beach & Bronte Baths",
          "nameCn": "布朗特海滩与海水浴场",
          "lat": -33.9065,
          "lng": 151.2682,
          "rank": 11,
          "tier": "推荐",
          "note": "邦迪－库吉步道中段的安静海滩，1887 年建成的天然潮汐泳池是悉尼最古老的公共泳池之一。"
        }
      ]
    }
  ]
}
