{
  "id": "uts",
  "type": "school",
  "name": "University of Technology Sydney",
  "nameCn": "悉尼科技大学",
  "city": "Sydney",
  "center": [
    -33.8836,
    151.2008
  ],
  "zoom": 13,
  "blurb": "悉尼科技大学:坐落于悉尼CBD南缘的都市型理工名校,以Broadway/Ultimo主校区为核心,串联Haymarket(唐人街旁)、Moore Park体育精英区与Botany科技实验室,校园即城市。",
  "features": [
    {
      "kind": "zone",
      "label": "校区 / 区域",
      "color": "#16a34a",
      "defaultOn": true,
      "items": [
        {
          "name": "City Campus — Broadway/Ultimo",
          "nameCn": "City主校区(Broadway/Ultimo)",
          "lat": -33.8836,
          "lng": 151.2003,
          "radius": 420,
          "note": "校园心脏,UTS Tower与UTS Central(图书馆)所在,理工、科学、健康、设计各院系主楼云集。"
        },
        {
          "name": "City Campus — Haymarket",
          "nameCn": "Haymarket校区",
          "lat": -33.8811,
          "lng": 151.2018,
          "radius": 260,
          "note": "紧邻唐人街的市集旧址改建区,Frank Gehry设计的商学院大楼坐镇。"
        },
        {
          "name": "Moore Park Precinct (Rugby Australia Building)",
          "nameCn": "Moore Park体育校区",
          "lat": -33.8877,
          "lng": 151.2242,
          "radius": 350,
          "note": "悉尼板球场旁的体育精英区,运动科学、理疗与体育媒体专业基地,与澳大利亚橄榄球队共址。"
        },
        {
          "name": "Botany — UTS Tech Lab",
          "nameCn": "Botany科技实验室",
          "lat": -33.9388,
          "lng": 151.1991,
          "radius": 350,
          "note": "近机场工业区的18000平米工程研究重镇,机器人、土木、通信与车辆系统专业实验室。"
        },
        {
          "name": "Blackfriars Precinct",
          "nameCn": "Blackfriars园区",
          "lat": -33.8861,
          "lng": 151.1976,
          "radius": 220,
          "note": "Chippendale一侧的历史园区,绿荫幽静,设儿童中心与科研创新团队办公。"
        }
      ]
    },
    {
      "kind": "pointLayer",
      "key": "department",
      "label": "院系 / 教学楼",
      "color": "#2563eb",
      "icon": "school",
      "items": [
        {
          "name": "UTS Tower (Building 1)",
          "nameCn": "UTS主塔楼(1号楼)",
          "lat": -33.8837,
          "lng": 151.2009,
          "note": "120米高的粗野主义地标塔楼,行政与多院系核心,校园门面。"
        },
        {
          "name": "Building 11 — Faculty of Engineering and IT",
          "nameCn": "11号楼(工程与信息技术学院)",
          "lat": -33.884,
          "lng": 151.1992,
          "note": "外墙覆二进制码穿孔屏的14层工程IT学院主楼。"
        },
        {
          "name": "Vicki Sara Building (Building 7) — Science",
          "nameCn": "Vicki Sara楼(7号楼·理学院)",
          "lat": -33.8824,
          "lng": 151.1998,
          "note": "Thomas与Jones街角的理科主楼,与健康学院相连成科学健康片区。"
        },
        {
          "name": "Dr Chau Chak Wing Building (Building 8) — Business",
          "nameCn": "周泽荣博士楼(8号楼·商学院)",
          "lat": -33.8811,
          "lng": 151.2014,
          "note": "Frank Gehry在澳设计首作,32万块定制砖砌成的「褶皱纸袋」商学院。"
        },
        {
          "name": "Faculty of Law (UTS Central)",
          "nameCn": "法学院(UTS Central内)",
          "lat": -33.8839,
          "lng": 151.1999,
          "note": "扭转塔楼UTS Central内,与图书馆同栋,法学院主场。"
        }
      ],
      "defaultOn": true
    },
    {
      "kind": "pointLayer",
      "key": "library",
      "label": "图书馆",
      "color": "#0891b2",
      "icon": "local_library",
      "items": [
        {
          "name": "UTS Library (UTS Central, Building 2)",
          "nameCn": "UTS图书馆(UTS Central·2号楼)",
          "lat": -33.884,
          "lng": 151.1999,
          "note": "2019年迁入UTS Central五至九层,馆藏经Alumni Green地下检索系统调取。"
        }
      ]
    },
    {
      "kind": "pointLayer",
      "key": "museum",
      "label": "博物馆 / 展馆",
      "color": "#9333ea",
      "icon": "museum",
      "items": [
        {
          "name": "Powerhouse Museum (Ultimo)",
          "nameCn": "动力博物馆(Ultimo)",
          "lat": -33.8782,
          "lng": 151.1996,
          "note": "经The Goods Line步道与Haymarket校区相连的科技设计博物馆,共享其剧场空间。"
        }
      ]
    },
    {
      "kind": "pointLayer",
      "key": "landmark",
      "label": "地标 / 学生中心",
      "color": "#64748b",
      "icon": "place",
      "items": [
        {
          "name": "Alumni Green",
          "nameCn": "校友草坪(Alumni Green)",
          "lat": -33.8833,
          "lng": 151.2001,
          "note": "主校区中央开放草坪,地下即图书馆检索库,学生活动聚集地。"
        },
        {
          "name": "The Goods Line",
          "nameCn": "The Goods Line步行长廊",
          "lat": -33.88,
          "lng": 151.2005,
          "note": "由旧货运铁路改造的高线公园式步道,串联校园、动力博物馆与中央车站。"
        },
        {
          "name": "Central Station",
          "nameCn": "中央火车站",
          "lat": -33.884,
          "lng": 151.2063,
          "note": "悉尼最大铁路枢纽,步行可达校园东侧,通勤主入口。"
        }
      ]
    },
    {
      "kind": "pointLayer",
      "key": "supermarket",
      "label": "超市 / 亚超",
      "color": "#ea580c",
      "icon": "shopping_cart",
      "items": [
        {
          "name": "Coles Broadway",
          "nameCn": "Coles 超市（Broadway 购物中心）",
          "lat": -33.8838,
          "lng": 151.1948,
          "note": "离 UTS 步行约 8 分钟，本地最大连锁超市之一，日常生鲜、米面油一站买齐，楼里还有 ALDI。"
        },
        {
          "name": "Woolworths Metro (Central Park Mall)",
          "nameCn": "Woolworths 超市（Central Park 商场）",
          "lat": -33.883,
          "lng": 151.198,
          "note": "紧邻校园对面的 Central Park 楼下，主流澳洲超市，下课顺路补货最方便。"
        },
        {
          "name": "Thai Kee IGA (Market City)",
          "nameCn": "泰记亚洲超市（Market City）",
          "lat": -33.88,
          "lng": 151.204,
          "note": "悉尼唐人街最大的亚洲超市，中式调料、火锅料、冷冻饺子、亚洲蔬菜应有尽有，想家就来这。"
        },
        {
          "name": "Burlington Supermarket",
          "nameCn": "宝灵顿亚洲超市",
          "lat": -33.8788,
          "lng": 151.2046,
          "note": "Dixon 街附近老牌华人超市，肉禽海鲜和南货齐全，价格实惠，老移民常去。"
        },
        {
          "name": "Paddy's Markets Haymarket",
          "nameCn": "Paddy's 市场（海鲜果蔬）",
          "lat": -33.8799,
          "lng": 151.2039,
          "note": "周三到周日开的大集市，新鲜果蔬海鲜按堆卖，临近收市还能捡便宜，性价比之王。"
        }
      ]
    },
    {
      "kind": "pointLayer",
      "key": "dining",
      "label": "必吃 / 餐饮",
      "color": "#dc2626",
      "icon": "restaurant",
      "items": [
        {
          "name": "Chat Thai (Thaitown)",
          "nameCn": "Chat Thai 泰餐（泰国城旗舰店）",
          "lat": -33.8794,
          "lng": 151.2068,
          "note": "Capitol 剧院对面，悉尼最有名的正宗泰餐，常年排队到凌晨两点，泰式船面和咖喱必点。"
        },
        {
          "name": "Spice Alley (Kensington Street)",
          "nameCn": "Spice Alley 亚洲美食巷",
          "lat": -33.8845,
          "lng": 151.1995,
          "note": "就在校园旁的红灯笼小巷，露天大排档式亚洲快餐（拉面、叻沙、煲仔饭），学生价、灯光出片。"
        },
        {
          "name": "Emperor's Garden Cake & Bakery",
          "nameCn": "皇庭饼屋（奶油泡芙）",
          "lat": -33.8793,
          "lng": 151.2042,
          "note": "唐人街地标级老店，现做现卖的热奶油泡芙一块多澳币一颗，门口永远在排队。"
        },
        {
          "name": "Mappen Udon",
          "nameCn": "Mappen 乌冬面",
          "lat": -33.877,
          "lng": 151.2055,
          "note": "George 街上的人气日式自助乌冬，自选天妇罗、价格亲民、出餐快，留学生食堂般的存在。"
        },
        {
          "name": "Golden Century / Chinatown 粤菜",
          "nameCn": "唐人街粤式海鲜（Dixon 街一带）",
          "lat": -33.879,
          "lng": 151.205,
          "note": "Dixon 步行街聚集大量港式/粤式酒楼，早茶点心、椒盐海鲜，朋友聚餐、家长来访首选。"
        },
        {
          "name": "Central Park Food Court",
          "nameCn": "Central Park 美食广场",
          "lat": -33.883,
          "lng": 151.1982,
          "note": "校园对面商场内的美食广场，韩餐、越南粉、汉堡、奶茶都有，下课快速解决一餐。"
        }
      ]
    },
    {
      "kind": "pointLayer",
      "key": "services",
      "label": "生活服务",
      "color": "#0e7490",
      "icon": "account_balance",
      "items": [
        {
          "name": "Commonwealth Bank — Broadway",
          "nameCn": "联邦银行 Broadway 支行（开户）",
          "lat": -33.8838,
          "lng": 151.1948,
          "note": "Broadway 购物中心内的 CBA 网点，留学生落地办银行卡/开户最近的大行，记得带护照和地址证明。"
        },
        {
          "name": "Royal Prince Alfred Hospital (RPA) Emergency",
          "nameCn": "皇家阿尔弗雷德医院（RPA 急诊）",
          "lat": -33.8892,
          "lng": 151.1829,
          "note": "离校约 2 公里的大型公立医院，24 小时急诊（ED），突发重病或受伤就来这里。"
        },
        {
          "name": "Priceline Pharmacy Broadway",
          "nameCn": "Priceline 药房（Broadway）",
          "lat": -33.8837,
          "lng": 151.195,
          "note": "购物中心内连锁药妆店，非处方药、感冒药、防晒和日用品都能买，比独立药房选择多。"
        },
        {
          "name": "Telstra / Optus (Broadway Sydney)",
          "nameCn": "Telstra / Optus 营业厅（Broadway）",
          "lat": -33.8836,
          "lng": 151.1949,
          "note": "Broadway 商场内的电信运营商门店，办本地手机卡和上网套餐，带护照可现场激活。"
        }
      ]
    },
    {
      "kind": "pointLayer",
      "key": "attractions",
      "label": "周边 / 打卡",
      "color": "#db2777",
      "icon": "photo_camera",
      "items": [
        {
          "name": "Chinese Garden of Friendship",
          "nameCn": "谊园（中国友谊花园）",
          "lat": -33.877,
          "lng": 151.2018,
          "note": "达令港边的苏州式古典园林，亭台流水、旗袍写真热门地，离校步行十多分钟，闹中取静。"
        },
        {
          "name": "Darling Harbour / Tumbalong Park",
          "nameCn": "达令港 / 通巴龙公园",
          "lat": -33.8745,
          "lng": 151.201,
          "note": "悉尼最热闹的滨水休闲区，餐厅、摩天轮、跨年烟花和周末活动都在这，散步约会必去。"
        },
        {
          "name": "The Goods Line",
          "nameCn": "The Goods Line 高架绿道",
          "lat": -33.881,
          "lng": 151.2,
          "note": "由旧铁路改造的步行绿道，从校园穿过直通达令港，沿途有座椅和乒乓桌，通勤兼散心。"
        },
        {
          "name": "Victoria Park",
          "nameCn": "维多利亚公园",
          "lat": -33.887,
          "lng": 151.193,
          "note": "Broadway 尽头紧挨悉尼大学的大草坪公园，带泳池，天气好时野餐晒太阳的好去处。"
        },
        {
          "name": "Capitol Theatre",
          "nameCn": "国会剧院（Capitol Theatre）",
          "lat": -33.88,
          "lng": 151.2065,
          "note": "海马克特地标级历史剧院，常驻百老汇音乐剧，建筑本身就值得一拍，学生票偶有折扣。"
        }
      ]
    }
  ]
}
